[
  {
    "name": "Brauerei Stellwerk",
    "lat": 52.3503625,
    "lng": 13.2852344,
    "beschreibung": "Brauerei Stellwerk is a unique lost place full of history and mystery. It attracts adventurers, photographers, and history enthusiasts.",
    "category": "Hospital",
    "schwierigkeit": "Easy"
  },
  {
    "name": "Haus",
    "lat": 52.2308625,
    "lng": 13.4439219,
    "beschreibung": "Haus is a unique lost place full of history and mystery. It attracts adventurers, photographers, and history enthusiasts.",
    "category": "Residential",
    "schwierigkeit": "Extreme"
  },
  {
    "name": "Telefonzellen Friedhof",
    "lat": 52.3185375,
    "lng": 13.0153906,
    "beschreibung": "Telefonzellen Friedhof is a unique lost place full of history and mystery. It attracts adventurers, photographers, and history enthusiasts.",
    "category": "Factory",
    "schwierigkeit": "Easy"
  },
  {
    "name": "Haus der toten Diva",
    "lat": 52.6262125,
    "lng": 13.0232344,
    "beschreibung": "Haus der toten Diva is a unique lost place full of history and mystery. It attracts adventurers, photographers, and history enthusiasts.",
    "category": "Factory",
    "schwierigkeit": "Easy"
  },
  {
    "name": "Fluo-Bunker",
    "lat": 52.4218875,
    "lng": 12.9898281,
    "beschreibung": "Fluo-Bunker is a unique lost place full of history and mystery. It attracts adventurers, photographers, and history enthusiasts.",
    "category": "Factory",
    "schwierigkeit": "Easy"
  },
  {
    "name": "Haus",
    "lat": 51.7485125,
    "lng": 13.9442656,
    "beschreibung": "Haus is a unique lost place full of history and mystery. It attracts adventurers, photographers, and history enthusiasts.",
    "category": "Factory",
    "schwierigkeit": "Easy"
  },
  {
    "name": "Haus",
    "lat": 51.5952875,
    "lng": 13.7774531,
    "beschreibung": "Haus is a unique lost place full of history and mystery. It attracts adventurers, photographers, and history enthusiasts.",
    "category": "Orphanage",
    "schwierigkeit": "Hard"
  },
  {
    "name": "Tuchfabrik",
    "lat": 51.7477625,
    "lng": 14.6540156,
    "beschreibung": "Tuchfabrik is a unique lost place full of history and mystery. It attracts adventurers, photographers, and history enthusiasts.",
    "category": "Barracks",
    "schwierigkeit": "Easy"
  },
  {
    "name": "Bunker",
    "lat": 52.2272375,
    "lng": 13.9806406,
    "beschreibung": "Bunker is a unique lost place full of history and mystery. It attracts adventurers, photographers, and history enthusiasts.",
    "category": "Hotel",
    "schwierigkeit": "Extreme"
  },
  {
    "name": "Bunker",
    "lat": 52.0987125,
    "lng": 13.6342344,
    "beschreibung": "Bunker is a unique lost place full of history and mystery. It attracts adventurers, photographers, and history enthusiasts.",
    "category": "Residential",
    "schwierigkeit": "Extreme"
  },
  {
    "name": "NVA Kaserne",
    "lat": 52.3429625,
    "lng": 13.6657969,
    "beschreibung": "NVA Kaserne is a unique lost place full of history and mystery. It attracts adventurers, photographers, and history enthusiasts.",
    "category": "Industry",
    "schwierigkeit": "Hard"
  },
  {
    "name": "NVA Bunker",
    "lat": 52.3609125,
    "lng": 14.2988906,
    "beschreibung": "NVA Bunker is a unique lost place full of history and mystery. It attracts adventurers, photographers, and history enthusiasts.",
    "category": "Hotel",
    "schwierigkeit": "Medium"
  },
  {
    "name": "Schlachthof",
    "lat": 52.9361375,
    "lng": 11.0357344,
    "beschreibung": "Schlachthof is a unique lost place full of history and mystery. It attracts adventurers, photographers, and history enthusiasts.",
    "category": "Bunker",
    "schwierigkeit": "Hard"
  },
  {
    "name": "Bauernhof",
    "lat": 50.7861125,
    "lng": 13.8143906,
    "beschreibung": "Bauernhof is a unique lost place full of history and mystery. It attracts adventurers, photographers, and history enthusiasts.",
    "category": "Bunker",
    "schwierigkeit": "Extreme"
  },
  {
    "name": "Abwasserwerk",
    "lat": 51.7800625,
    "lng": 14.0994844,
    "beschreibung": "Abwasserwerk is a unique lost place full of history and mystery. It attracts adventurers, photographers, and history enthusiasts.",
    "category": "Holiday Camp",
    "schwierigkeit": "Extreme"
  },
  {
    "name": "Ferienlager",
    "lat": 52.6638125,
    "lng": 12.3990469,
    "beschreibung": "Ferienlager is a unique lost place full of history and mystery. It attracts adventurers, photographers, and history enthusiasts.",
    "category": "School",
    "schwierigkeit": "Extreme"
  },
  {
    "name": "Novoktan Anlage",
    "lat": 52.5285625,
    "lng": 12.4050156,
    "beschreibung": "Novoktan Anlage is a unique lost place full of history and mystery. It attracts adventurers, photographers, and history enthusiasts.",
    "category": "Orphanage",
    "schwierigkeit": "Easy"
  },
  {
    "name": "Gleiswerke",
    "lat": 52.3926375,
    "lng": 12.4255156,
    "beschreibung": "Gleiswerke is a unique lost place full of history and mystery. It attracts adventurers, photographers, and history enthusiasts.",
    "category": "School",
    "schwierigkeit": "Easy"
  },
  {
    "name": "Ziegelei",
    "lat": 52.1090125,
    "lng": 12.3827969,
    "beschreibung": "Ziegelei is a unique lost place full of history and mystery. It attracts adventurers, photographers, and history enthusiasts.",
    "category": "Orphanage",
    "schwierigkeit": "Hard"
  },
  {
    "name": "Mokerei",
    "lat": 52.1061375,
    "lng": 13.7581094,
    "beschreibung": "Mokerei is a unique lost place full of history and mystery. It attracts adventurers, photographers, and history enthusiasts.",
    "category": "Hotel",
    "schwierigkeit": "Extreme"
  },
  {
    "name": "Munitionslager",
    "lat": 52.9456375,
    "lng": 12.9218594,
    "beschreibung": "Munitionslager is a unique lost place full of history and mystery. It attracts adventurers, photographers, and history enthusiasts.",
    "category": "Hospital",
    "schwierigkeit": "Extreme"
  },
  {
    "name": "Artilleriebrigade",
    "lat": 53.1797125,
    "lng": 12.6803906,
    "beschreibung": "Artilleriebrigade is a unique lost place full of history and mystery. It attracts adventurers, photographers, and history enthusiasts.",
    "category": "Bunker",
    "schwierigkeit": "Medium"
  },
  {
    "name": "Kaserne",
    "lat": 53.1972875,
    "lng": 12.5158906,
    "beschreibung": "Kaserne is a unique lost place full of history and mystery. It attracts adventurers, photographers, and history enthusiasts.",
    "category": "Industry",
    "schwierigkeit": "Medium"
  },
  {
    "name": "Heeresversuchsanstalt",
    "lat": 52.0962125,
    "lng": 13.3604219,
    "beschreibung": "Heeresversuchsanstalt is a unique lost place full of history and mystery. It attracts adventurers, photographers, and history enthusiasts.",
    "category": "Bunker",
    "schwierigkeit": "Easy"
  },
  {
    "name": "Fliegerhorst Jüterbog-Damm",
    "lat": 51.9825875,
    "lng": 13.0686094,
    "beschreibung": "Fliegerhorst Jüterbog-Damm is a unique lost place full of history and mystery. It attracts adventurers, photographers, and history enthusiasts.",
    "category": "Factory",
    "schwierigkeit": "Extreme"
  },
  {
    "name": "Kaiserbauten GSSD",
    "lat": 52.0213125,
    "lng": 12.9925469,
    "beschreibung": "Kaiserbauten GSSD is a unique lost place full of history and mystery. It attracts adventurers, photographers, and history enthusiasts.",
    "category": "Bunker",
    "schwierigkeit": "Hard"
  },
  {
    "name": "Kaserne Neues Lager",
    "lat": 51.9993625,
    "lng": 13.0251719,
    "beschreibung": "Kaserne Neues Lager is a unique lost place full of history and mystery. It attracts adventurers, photographers, and history enthusiasts.",
    "category": "Industry",
    "schwierigkeit": "Medium"
  },
  {
    "name": "Kaserne",
    "lat": 52.0270375,
    "lng": 12.9754219,
    "beschreibung": "Kaserne is a unique lost place full of history and mystery. It attracts adventurers, photographers, and history enthusiasts.",
    "category": "School",
    "schwierigkeit": "Hard"
  },
  {
    "name": "Lazarett",
    "lat": 51.9942375,
    "lng": 13.0311719,
    "beschreibung": "Lazarett is a unique lost place full of history and mystery. It attracts adventurers, photographers, and history enthusiasts.",
    "category": "School",
    "schwierigkeit": "Medium"
  },
  {
    "name": "Funksendeamt + Bunker",
    "lat": 51.7028125,
    "lng": 13.9477969,
    "beschreibung": "Funksendeamt + Bunker is a unique lost place full of history and mystery. It attracts adventurers, photographers, and history enthusiasts.",
    "category": "Hospital",
    "schwierigkeit": "Extreme"
  },
  {
    "name": "Haus",
    "lat": 52.3636625,
    "lng": 14.3432969,
    "beschreibung": "Haus is a unique lost place full of history and mystery. It attracts adventurers, photographers, and history enthusiasts.",
    "category": "Hotel",
    "schwierigkeit": "Medium"
  },
  {
    "name": "Fliegerhorst",
    "lat": 52.6231768,
    "lng": 13.1523741,
    "beschreibung": "Fliegerhorst is a unique lost place full of history and mystery. It attracts adventurers, photographers, and history enthusiasts.",
    "category": "Bunker",
    "schwierigkeit": "Easy"
  },
  {
    "name": "Kinderheim",
    "lat": 52.4615125,
    "lng": 12.4817656,
    "beschreibung": "Kinderheim is a unique lost place full of history and mystery. It attracts adventurers, photographers, and history enthusiasts.",
    "category": "Barracks",
    "schwierigkeit": "Medium"
  },
  {
    "name": "NVA Gelände",
    "lat": 52.8400375,
    "lng": 13.0386094,
    "beschreibung": "NVA Gelände is a unique lost place full of history and mystery. It attracts adventurers, photographers, and history enthusiasts.",
    "category": "School",
    "schwierigkeit": "Medium"
  },
  {
    "name": "Panzer Fabrik",
    "lat": 52.0918875,
    "lng": 13.3647969,
    "beschreibung": "Panzer Fabrik is a unique lost place full of history and mystery. It attracts adventurers, photographers, and history enthusiasts.",
    "category": "Residential",
    "schwierigkeit": "Medium"
  },
  {
    "name": "FDGB-Ferienheim",
    "lat": 52.5755538,
    "lng": 14.0724737,
    "beschreibung": "FDGB-Ferienheim is a unique lost place full of history and mystery. It attracts adventurers, photographers, and history enthusiasts.",
    "category": "Barracks",
    "schwierigkeit": "Hard"
  },
  {
    "name": "Bunker Koralle",
    "lat": 52.7396875,
    "lng": 13.5756406,
    "beschreibung": "Bunker Koralle is a unique lost place full of history and mystery. It attracts adventurers, photographers, and history enthusiasts.",
    "category": "Factory",
    "schwierigkeit": "Medium"
  },
  {
    "name": "Stasi Bunker",
    "lat": 52.6674875,
    "lng": 13.7219531,
    "beschreibung": "Stasi Bunker is a unique lost place full of history and mystery. It attracts adventurers, photographers, and history enthusiasts.",
    "category": "Industry",
    "schwierigkeit": "Medium"
  },
  {
    "name": "Hotel",
    "lat": 52.2189125,
    "lng": 14.0363281,
    "beschreibung": "Hotel is a unique lost place full of history and mystery. It attracts adventurers, photographers, and history enthusiasts.",
    "category": "Hotel",
    "schwierigkeit": "Medium"
  },
  {
    "name": "Haus",
    "lat": 53.1804625,
    "lng": 13.1237969,
    "beschreibung": "Haus is a unique lost place full of history and mystery. It attracts adventurers, photographers, and history enthusiasts.",
    "category": "Bunker",
    "schwierigkeit": "Hard"
  },
  {
    "name": "Hotel",
    "lat": 51.6525125,
    "lng": 14.0259844,
    "beschreibung": "Hotel is a unique lost place full of history and mystery. It attracts adventurers, photographers, and history enthusiasts.",
    "category": "School",
    "schwierigkeit": "Medium"
  },
  {
    "name": "Gleiswerke",
    "lat": 52.3901125,
    "lng": 12.4145156,
    "beschreibung": "Gleiswerke is a unique lost place full of history and mystery. It attracts adventurers, photographers, and history enthusiasts.",
    "category": "Factory",
    "schwierigkeit": "Easy"
  },
  {
    "name": "Kraftwerk Plessa",
    "lat": 51.4708875,
    "lng": 13.6107031,
    "beschreibung": "Kraftwerk Plessa is a unique lost place full of history and mystery. It attracts adventurers, photographers, and history enthusiasts.",
    "category": "Hospital",
    "schwierigkeit": "Extreme"
  },
  {
    "name": "GSSD Kommandatur",
    "lat": 52.8331625,
    "lng": 13.8023281,
    "beschreibung": "GSSD Kommandatur is a unique lost place full of history and mystery. It attracts adventurers, photographers, and history enthusiasts.",
    "category": "Orphanage",
    "schwierigkeit": "Hard"
  },
  {
    "name": "Gutshaus",
    "lat": 52.2199125,
    "lng": 14.0440469,
    "beschreibung": "Gutshaus is a unique lost place full of history and mystery. It attracts adventurers, photographers, and history enthusiasts.",
    "category": "Barracks",
    "schwierigkeit": "Extreme"
  },
  {
    "name": "Krematorium",
    "lat": 52.1931625,
    "lng": 13.3684531,
    "beschreibung": "Krematorium is a unique lost place full of history and mystery. It attracts adventurers, photographers, and history enthusiasts.",
    "category": "Holiday Camp",
    "schwierigkeit": "Hard"
  },
  {
    "name": "Garnison Vogelsang",
    "lat": 53.0553125,
    "lng": 13.3705156,
    "beschreibung": "Garnison Vogelsang is a unique lost place full of history and mystery. It attracts adventurers, photographers, and history enthusiasts.",
    "category": "Bunker",
    "schwierigkeit": "Medium"
  },
  {
    "name": "Little Prypjat",
    "lat": 52.0282625,
    "lng": 13.7578281,
    "beschreibung": "Little Prypjat is a unique lost place full of history and mystery. It attracts adventurers, photographers, and history enthusiasts.",
    "category": "Factory",
    "schwierigkeit": "Extreme"
  },
  {
    "name": "Heilstätte Grabowsee",
    "lat": 52.786956,
    "lng": 13.2923334,
    "beschreibung": "Heilstätte Grabowsee is a unique lost place full of history and mystery. It attracts adventurers, photographers, and history enthusiasts.",
    "category": "Hotel",
    "schwierigkeit": "Medium"
  },
  {
    "name": "Ferienheim",
    "lat": 52.1614625,
    "lng": 13.7618906,
    "beschreibung": "Ferienheim is a unique lost place full of history and mystery. It attracts adventurers, photographers, and history enthusiasts.",
    "category": "Hotel",
    "schwierigkeit": "Easy"
  },
  {
    "name": "Forst Zinna",
    "lat": 52.0556375,
    "lng": 13.1179219,
    "beschreibung": "Forst Zinna is a unique lost place full of history and mystery. It attracts adventurers, photographers, and history enthusiasts.",
    "category": "Industry",
    "schwierigkeit": "Easy"
  },
  {
    "name": "„Otto von Braun“ – Testgelände Gottow",
    "lat": 52.0927125,
    "lng": 13.3113906,
    "beschreibung": "„Otto von Braun“ – Testgelände Gottow is a unique lost place full of history and mystery. It attracts adventurers, photographers, and history enthusiasts.",
    "category": "Factory",
    "schwierigkeit": "Easy"
  },
  {
    "name": "NVA Kasino",
    "lat": 52.2832875,
    "lng": 13.0017344,
    "beschreibung": "NVA Kasino is a unique lost place full of history and mystery. It attracts adventurers, photographers, and history enthusiasts.",
    "category": "Bunker",
    "schwierigkeit": "Easy"
  },
  {
    "name": "Polizeischule",
    "lat": 52.7718875,
    "lng": 13.6016406,
    "beschreibung": "Polizeischule is a unique lost place full of history and mystery. It attracts adventurers, photographers, and history enthusiasts.",
    "category": "Hospital",
    "schwierigkeit": "Hard"
  },
  {
    "name": "Flughafen Rangsdorf",
    "lat": 52.2831875,
    "lng": 13.4292031,
    "beschreibung": "Flughafen Rangsdorf is a unique lost place full of history and mystery. It attracts adventurers, photographers, and history enthusiasts.",
    "category": "Barracks",
    "schwierigkeit": "Medium"
  },
  {
    "name": "Brautladen",
    "lat": 51.5431292,
    "lng": 13.8954782,
    "beschreibung": "Brautladen is a unique lost place full of history and mystery. It attracts adventurers, photographers, and history enthusiasts.",
    "category": "Hotel",
    "schwierigkeit": "Hard"
  },
  {
    "name": "Hotel",
    "lat": 52.9485125,
    "lng": 13.7179219,
    "beschreibung": "Hotel is a unique lost place full of history and mystery. It attracts adventurers, photographers, and history enthusiasts.",
    "category": "School",
    "schwierigkeit": "Easy"
  },
  {
    "name": "Schule",
    "lat": 52.1397875,
    "lng": 12.4800156,
    "beschreibung": "Schule is a unique lost place full of history and mystery. It attracts adventurers, photographers, and history enthusiasts.",
    "category": "Hospital",
    "schwierigkeit": "Easy"
  },
  {
    "name": "Bunker",
    "lat": 52.1443625,
    "lng": 12.5048906,
    "beschreibung": "Bunker is a unique lost place full of history and mystery. It attracts adventurers, photographers, and history enthusiasts.",
    "category": "Hospital",
    "schwierigkeit": "Medium"
  },
  {
    "name": "Kinderheim",
    "lat": 52.0329375,
    "lng": 14.1913125,
    "beschreibung": "Kinderheim is a unique lost place full of history and mystery. It attracts adventurers, photographers, and history enthusiasts.",
    "category": "Factory",
    "schwierigkeit": "Extreme"
  },
  {
    "name": "Krankenhaus",
    "lat": 52.3476875,
    "lng": 14.0390469,
    "beschreibung": "Krankenhaus is a unique lost place full of history and mystery. It attracts adventurers, photographers, and history enthusiasts.",
    "category": "Industry",
    "schwierigkeit": "Hard"
  },
  {
    "name": "Schaufelradbagger",
    "lat": 51.5352625,
    "lng": 13.9499844,
    "beschreibung": "Schaufelradbagger is a unique lost place full of history and mystery. It attracts adventurers, photographers, and history enthusiasts.",
    "category": "Holiday Camp",
    "schwierigkeit": "Easy"
  },
  {
    "name": "DDR Zirkus",
    "lat": 52.5018375,
    "lng": 13.6573906,
    "beschreibung": "DDR Zirkus is a unique lost place full of history and mystery. It attracts adventurers, photographers, and history enthusiasts.",
    "category": "Orphanage",
    "schwierigkeit": "Hard"
  },
  {
    "name": "NVA Treib- und- Schmierstofflager",
    "lat": 52.8800625,
    "lng": 14.1103281,
    "beschreibung": "NVA Treib- und- Schmierstofflager is a unique lost place full of history and mystery. It attracts adventurers, photographers, and history enthusiasts.",
    "category": "Industry",
    "schwierigkeit": "Extreme"
  },
  {
    "name": "Munitionskistenwald",
    "lat": 52.7934875,
    "lng": 13.5985781,
    "beschreibung": "Munitionskistenwald is a unique lost place full of history and mystery. It attracts adventurers, photographers, and history enthusiasts.",
    "category": "Orphanage",
    "schwierigkeit": "Extreme"
  },
  {
    "name": "Tuchfabrik",
    "lat": 53.1626125,
    "lng": 12.4916719,
    "beschreibung": "Tuchfabrik is a unique lost place full of history and mystery. It attracts adventurers, photographers, and history enthusiasts.",
    "category": "Bunker",
    "schwierigkeit": "Medium"
  },
  {
    "name": "VEB OTB Wittstock",
    "lat": 53.1613625,
    "lng": 12.4945156,
    "beschreibung": "VEB OTB Wittstock is a unique lost place full of history and mystery. It attracts adventurers, photographers, and history enthusiasts.",
    "category": "Hospital",
    "schwierigkeit": "Medium"
  },
  {
    "name": "Schießplatz",
    "lat": 52.6339625,
    "lng": 13.1522344,
    "beschreibung": "Schießplatz is a unique lost place full of history and mystery. It attracts adventurers, photographers, and history enthusiasts.",
    "category": "Residential",
    "schwierigkeit": "Hard"
  },
  {
    "name": "Forsthaus",
    "lat": 52.3384625,
    "lng": 13.6828594,
    "beschreibung": "Forsthaus is a unique lost place full of history and mystery. It attracts adventurers, photographers, and history enthusiasts.",
    "category": "Holiday Camp",
    "schwierigkeit": "Hard"
  },
  {
    "name": "SS-Brotfabrik",
    "lat": 52.7682875,
    "lng": 13.2823281,
    "beschreibung": "SS-Brotfabrik is a unique lost place full of history and mystery. It attracts adventurers, photographers, and history enthusiasts.",
    "category": "Residential",
    "schwierigkeit": "Hard"
  },
  {
    "name": "Gutshof",
    "lat": 51.7076125,
    "lng": 13.2382031,
    "beschreibung": "Gutshof is a unique lost place full of history and mystery. It attracts adventurers, photographers, and history enthusiasts.",
    "category": "Residential",
    "schwierigkeit": "Easy"
  },
  {
    "name": "Bunker",
    "lat": 52.7091125,
    "lng": 13.8173906,
    "beschreibung": "Bunker is a unique lost place full of history and mystery. It attracts adventurers, photographers, and history enthusiasts.",
    "category": "Bunker",
    "schwierigkeit": "Extreme"
  },
  {
    "name": "Haus",
    "lat": 53.1591625,
    "lng": 12.4641406,
    "beschreibung": "Haus is a unique lost place full of history and mystery. It attracts adventurers, photographers, and history enthusiasts.",
    "category": "Residential",
    "schwierigkeit": "Easy"
  },
  {
    "name": "Schule",
    "lat": 51.7413625,
    "lng": 14.6458594,
    "beschreibung": "Schule is a unique lost place full of history and mystery. It attracts adventurers, photographers, and history enthusiasts.",
    "category": "Orphanage",
    "schwierigkeit": "Medium"
  },
  {
    "name": "Gasthaus",
    "lat": 52.3594375,
    "lng": 12.3902969,
    "beschreibung": "Gasthaus is a unique lost place full of history and mystery. It attracts adventurers, photographers, and history enthusiasts.",
    "category": "Orphanage",
    "schwierigkeit": "Hard"
  },
  {
    "name": "Klinikum Kolkwitz",
    "lat": 51.7319375,
    "lng": 14.2289219,
    "beschreibung": "Klinikum Kolkwitz is a unique lost place full of history and mystery. It attracts adventurers, photographers, and history enthusiasts.",
    "category": "School",
    "schwierigkeit": "Medium"
  },
  {
    "name": "Mühle",
    "lat": 51.8825125,
    "lng": 14.6522344,
    "beschreibung": "Mühle is a unique lost place full of history and mystery. It attracts adventurers, photographers, and history enthusiasts.",
    "category": "Orphanage",
    "schwierigkeit": "Extreme"
  },
  {
    "name": "Loveparade Zug",
    "lat": 51.7375125,
    "lng": 13.9790469,
    "beschreibung": "Loveparade Zug is a unique lost place full of history and mystery. It attracts adventurers, photographers, and history enthusiasts.",
    "category": "Industry",
    "schwierigkeit": "Hard"
  },
  {
    "name": "Sonderwaffenlager",
    "lat": 53.1759125,
    "lng": 13.2806094,
    "beschreibung": "Sonderwaffenlager is a unique lost place full of history and mystery. It attracts adventurers, photographers, and history enthusiasts.",
    "category": "Factory",
    "schwierigkeit": "Easy"
  },
  {
    "name": "Penison",
    "lat": 50.8822375,
    "lng": 13.2811406,
    "beschreibung": "Penison is a unique lost place full of history and mystery. It attracts adventurers, photographers, and history enthusiasts.",
    "category": "Industry",
    "schwierigkeit": "Medium"
  },
  {
    "name": "Hotel",
    "lat": 50.8831625,
    "lng": 13.2819531,
    "beschreibung": "Hotel is a unique lost place full of history and mystery. It attracts adventurers, photographers, and history enthusiasts.",
    "category": "Hospital",
    "schwierigkeit": "Medium"
  },
  {
    "name": "Lokschuppen",
    "lat": 52.4803875,
    "lng": 13.2520156,
    "beschreibung": "Lokschuppen is a unique lost place full of history and mystery. It attracts adventurers, photographers, and history enthusiasts.",
    "category": "Holiday Camp",
    "schwierigkeit": "Hard"
  },
  {
    "name": "Schule",
    "lat": 52.6298125,
    "lng": 13.4869219,
    "beschreibung": "Schule is a unique lost place full of history and mystery. It attracts adventurers, photographers, and history enthusiasts.",
    "category": "School",
    "schwierigkeit": "Easy"
  },
  {
    "name": "Ballsaal",
    "lat": 51.7727125,
    "lng": 13.6890469,
    "beschreibung": "Ballsaal is a unique lost place full of history and mystery. It attracts adventurers, photographers, and history enthusiasts.",
    "category": "Factory",
    "schwierigkeit": "Medium"
  },
  {
    "name": "Burg Spreewald Molkerei",
    "lat": 51.8381125,
    "lng": 14.1452656,
    "beschreibung": "Burg Spreewald Molkerei is a unique lost place full of history and mystery. It attracts adventurers, photographers, and history enthusiasts.",
    "category": "Hospital",
    "schwierigkeit": "Easy"
  },
  {
    "name": "Glasfabrik",
    "lat": 51.6406625,
    "lng": 13.7210469,
    "beschreibung": "Glasfabrik is a unique lost place full of history and mystery. It attracts adventurers, photographers, and history enthusiasts.",
    "category": "Hospital",
    "schwierigkeit": "Easy"
  },
  {
    "name": "Schloss",
    "lat": 52.0511625,
    "lng": 13.5071406,
    "beschreibung": "Schloss is a unique lost place full of history and mystery. It attracts adventurers, photographers, and history enthusiasts.",
    "category": "Hospital",
    "schwierigkeit": "Extreme"
  },
  {
    "name": "Fliegerhorst",
    "lat": 52.6242375,
    "lng": 13.1559219,
    "beschreibung": "Fliegerhorst is a unique lost place full of history and mystery. It attracts adventurers, photographers, and history enthusiasts.",
    "category": "Hotel",
    "schwierigkeit": "Medium"
  },
  {
    "name": "Bunker",
    "lat": 53.1750125,
    "lng": 13.2797344,
    "beschreibung": "Bunker is a unique lost place full of history and mystery. It attracts adventurers, photographers, and history enthusiasts.",
    "category": "Bunker",
    "schwierigkeit": "Extreme"
  },
  {
    "name": "Haus",
    "lat": 52.4465875,
    "lng": 13.1680469,
    "beschreibung": "Haus is a unique lost place full of history and mystery. It attracts adventurers, photographers, and history enthusiasts.",
    "category": "Hotel",
    "schwierigkeit": "Hard"
  },
  {
    "name": "Gasthof",
    "lat": 52.6812125,
    "lng": 13.8370156,
    "beschreibung": "Gasthof is a unique lost place full of history and mystery. It attracts adventurers, photographers, and history enthusiasts.",
    "category": "Hotel",
    "schwierigkeit": "Easy"
  },
  {
    "name": "Ferienheim",
    "lat": 52.5789125,
    "lng": 13.8273281,
    "beschreibung": "Ferienheim is a unique lost place full of history and mystery. It attracts adventurers, photographers, and history enthusiasts.",
    "category": "Holiday Camp",
    "schwierigkeit": "Medium"
  },
  {
    "name": "Tuchfabrik",
    "lat": 51.7514875,
    "lng": 14.6531719,
    "beschreibung": "Tuchfabrik is a unique lost place full of history and mystery. It attracts adventurers, photographers, and history enthusiasts.",
    "category": "Holiday Camp",
    "schwierigkeit": "Easy"
  },
  {
    "name": "Mühle",
    "lat": 52.5948125,
    "lng": 13.8348594,
    "beschreibung": "Mühle is a unique lost place full of history and mystery. It attracts adventurers, photographers, and history enthusiasts.",
    "category": "Barracks",
    "schwierigkeit": "Medium"
  },
  {
    "name": "Kraftwerk",
    "lat": 51.5070875,
    "lng": 13.9642656,
    "beschreibung": "Kraftwerk is a unique lost place full of history and mystery. It attracts adventurers, photographers, and history enthusiasts.",
    "category": "Residential",
    "schwierigkeit": "Medium"
  },
  {
    "name": "Kinderheim",
    "lat": 52.1168125,
    "lng": 12.3770781,
    "beschreibung": "Kinderheim is a unique lost place full of history and mystery. It attracts adventurers, photographers, and history enthusiasts.",
    "category": "Barracks",
    "schwierigkeit": "Medium"
  },
  {
    "name": "Shelter",
    "lat": 52.6938875,
    "lng": 13.4120781,
    "beschreibung": "Shelter is a unique lost place full of history and mystery. It attracts adventurers, photographers, and history enthusiasts.",
    "category": "Bunker",
    "schwierigkeit": "Extreme"
  },
  {
    "name": "Bahnhof",
    "lat": 52.5391875,
    "lng": 13.2636719,
    "beschreibung": "Bahnhof is a unique lost place full of history and mystery. It attracts adventurers, photographers, and history enthusiasts.",
    "category": "Orphanage",
    "schwierigkeit": "Extreme"
  },
  {
    "name": "Gasthof",
    "lat": 51.8517125,
    "lng": 14.4036406,
    "beschreibung": "Gasthof is a unique lost place full of history and mystery. It attracts adventurers, photographers, and history enthusiasts.",
    "category": "Bunker",
    "schwierigkeit": "Easy"
  },
  {
    "name": "Draisinenbahn",
    "lat": 52.6801875,
    "lng": 13.8367969,
    "beschreibung": "Draisinenbahn is a unique lost place full of history and mystery. It attracts adventurers, photographers, and history enthusiasts.",
    "category": "School",
    "schwierigkeit": "Easy"
  },
  {
    "name": "Institut für angewandte Tierhygiene",
    "lat": 52.8892375,
    "lng": 13.8223906,
    "beschreibung": "Institut für angewandte Tierhygiene is a unique lost place full of history and mystery. It attracts adventurers, photographers, and history enthusiasts.",
    "category": "Bunker",
    "schwierigkeit": "Hard"
  },
  {
    "name": "Ziegelei",
    "lat": 52.1639875,
    "lng": 13.3980156,
    "beschreibung": "Ziegelei is a unique lost place full of history and mystery. It attracts adventurers, photographers, and history enthusiasts.",
    "category": "Bunker",
    "schwierigkeit": "Extreme"
  },
  {
    "name": "Kraftwerk",
    "lat": 51.5101125,
    "lng": 13.9685156,
    "beschreibung": "Kraftwerk is a unique lost place full of history and mystery. It attracts adventurers, photographers, and history enthusiasts.",
    "category": "Residential",
    "schwierigkeit": "Extreme"
  },
  {
    "name": "Gutshaus",
    "lat": 52.0148625,
    "lng": 14.6387344,
    "beschreibung": "Gutshaus is a unique lost place full of history and mystery. It attracts adventurers, photographers, and history enthusiasts.",
    "category": "Holiday Camp",
    "schwierigkeit": "Easy"
  },
  {
    "name": "Glashütte",
    "lat": 51.5509625,
    "lng": 14.2214844,
    "beschreibung": "Glashütte is a unique lost place full of history and mystery. It attracts adventurers, photographers, and history enthusiasts.",
    "category": "Holiday Camp",
    "schwierigkeit": "Medium"
  },
  {
    "name": "Kraftwerk",
    "lat": 52.3930375,
    "lng": 12.4139844,
    "beschreibung": "Kraftwerk is a unique lost place full of history and mystery. It attracts adventurers, photographers, and history enthusiasts.",
    "category": "Industry",
    "schwierigkeit": "Medium"
  },
  {
    "name": "Tanklager",
    "lat": 52.3277875,
    "lng": 13.6637656,
    "beschreibung": "Tanklager is a unique lost place full of history and mystery. It attracts adventurers, photographers, and history enthusiasts.",
    "category": "Barracks",
    "schwierigkeit": "Medium"
  },
  {
    "name": "VEB Baukeramik",
    "lat": 51.7442375,
    "lng": 13.7749531,
    "beschreibung": "VEB Baukeramik is a unique lost place full of history and mystery. It attracts adventurers, photographers, and history enthusiasts.",
    "category": "Industry",
    "schwierigkeit": "Easy"
  },
  {
    "name": "Hörsaal",
    "lat": 52.5891375,
    "lng": 13.4566406,
    "beschreibung": "Hörsaal is a unique lost place full of history and mystery. It attracts adventurers, photographers, and history enthusiasts.",
    "category": "Residential",
    "schwierigkeit": "Medium"
  },
  {
    "name": "Krankenhaus",
    "lat": 52.6381875,
    "lng": 13.4768594,
    "beschreibung": "Krankenhaus is a unique lost place full of history and mystery. It attracts adventurers, photographers, and history enthusiasts.",
    "category": "Barracks",
    "schwierigkeit": "Extreme"
  },
  {
    "name": "Schwimmbad",
    "lat": 52.4586625,
    "lng": 13.3285781,
    "beschreibung": "Schwimmbad is a unique lost place full of history and mystery. It attracts adventurers, photographers, and history enthusiasts.",
    "category": "Residential",
    "schwierigkeit": "Extreme"
  },
  {
    "name": "Schloss",
    "lat": 51.7115125,
    "lng": 14.0831406,
    "beschreibung": "Schloss is a unique lost place full of history and mystery. It attracts adventurers, photographers, and history enthusiasts.",
    "category": "Barracks",
    "schwierigkeit": "Extreme"
  },
  {
    "name": "Bahnhof",
    "lat": 51.6071125,
    "lng": 14.1614844,
    "beschreibung": "Bahnhof is a unique lost place full of history and mystery. It attracts adventurers, photographers, and history enthusiasts.",
    "category": "Hotel",
    "schwierigkeit": "Medium"
  },
  {
    "name": "Pionierlager",
    "lat": 53.0939875,
    "lng": 13.4451094,
    "beschreibung": "Pionierlager is a unique lost place full of history and mystery. It attracts adventurers, photographers, and history enthusiasts.",
    "category": "School",
    "schwierigkeit": "Extreme"
  },
  {
    "name": "Umspannwerk",
    "lat": 52.6408375,
    "lng": 13.2129844,
    "beschreibung": "Umspannwerk is a unique lost place full of history and mystery. It attracts adventurers, photographers, and history enthusiasts.",
    "category": "School",
    "schwierigkeit": "Easy"
  },
  {
    "name": "Wasserwerk",
    "lat": 52.6582625,
    "lng": 13.2193906,
    "beschreibung": "Wasserwerk is a unique lost place full of history and mystery. It attracts adventurers, photographers, and history enthusiasts.",
    "category": "Holiday Camp",
    "schwierigkeit": "Easy"
  },
  {
    "name": "Kaserne",
    "lat": 51.6741125,
    "lng": 14.6226719,
    "beschreibung": "Kaserne is a unique lost place full of history and mystery. It attracts adventurers, photographers, and history enthusiasts.",
    "category": "Holiday Camp",
    "schwierigkeit": "Hard"
  },
  {
    "name": "Mühle",
    "lat": 51.9688875,
    "lng": 12.9799219,
    "beschreibung": "Mühle is a unique lost place full of history and mystery. It attracts adventurers, photographers, and history enthusiasts.",
    "category": "Bunker",
    "schwierigkeit": "Hard"
  },
  {
    "name": "Messingwerk",
    "lat": 52.8451125,
    "lng": 13.7277969,
    "beschreibung": "Messingwerk is a unique lost place full of history and mystery. It attracts adventurers, photographers, and history enthusiasts.",
    "category": "Residential",
    "schwierigkeit": "Medium"
  },
  {
    "name": "Ziegelei",
    "lat": 51.6964625,
    "lng": 14.0295156,
    "beschreibung": "Ziegelei is a unique lost place full of history and mystery. It attracts adventurers, photographers, and history enthusiasts.",
    "category": "Holiday Camp",
    "schwierigkeit": "Easy"
  },
  {
    "name": "Schutzanlage",
    "lat": 52.1701125,
    "lng": 13.5264219,
    "beschreibung": "Schutzanlage is a unique lost place full of history and mystery. It attracts adventurers, photographers, and history enthusiasts.",
    "category": "Holiday Camp",
    "schwierigkeit": "Medium"
  },
  {
    "name": "Glassandwerk",
    "lat": 51.4598875,
    "lng": 14.0166406,
    "beschreibung": "Glassandwerk is a unique lost place full of history and mystery. It attracts adventurers, photographers, and history enthusiasts.",
    "category": "Barracks",
    "schwierigkeit": "Hard"
  },
  {
    "name": "Unterirdische Papphülsenfabrik",
    "lat": 48.4991125,
    "lng": 9.2001094,
    "beschreibung": "Unterirdische Papphülsenfabrik is a unique lost place full of history and mystery. It attracts adventurers, photographers, and history enthusiasts.",
    "category": "Bunker",
    "schwierigkeit": "Easy"
  },
  {
    "name": "Hotel Adler",
    "lat": 49.4665125,
    "lng": 9.0576094,
    "beschreibung": "Hotel Adler is a unique lost place full of history and mystery. It attracts adventurers, photographers, and history enthusiasts.",
    "category": "School",
    "schwierigkeit": "Easy"
  },
  {
    "name": "Hotel",
    "lat": 48.7839125,
    "lng": 8.7467031,
    "beschreibung": "Hotel is a unique lost place full of history and mystery. It attracts adventurers, photographers, and history enthusiasts.",
    "category": "Residential",
    "schwierigkeit": "Medium"
  },
  {
    "name": "Cafe",
    "lat": 48.5706875,
    "lng": 8.8860625,
    "beschreibung": "Cafe is a unique lost place full of history and mystery. It attracts adventurers, photographers, and history enthusiasts.",
    "category": "Residential",
    "schwierigkeit": "Extreme"
  },
  {
    "name": "Bunker",
    "lat": 49.2508375,
    "lng": 8.6758281,
    "beschreibung": "Bunker is a unique lost place full of history and mystery. It attracts adventurers, photographers, and history enthusiasts.",
    "category": "Residential",
    "schwierigkeit": "Hard"
  },
  {
    "name": "Pastorenhaus",
    "lat": 47.9218125,
    "lng": 9.6431094,
    "beschreibung": "Pastorenhaus is a unique lost place full of history and mystery. It attracts adventurers, photographers, and history enthusiasts.",
    "category": "Hospital",
    "schwierigkeit": "Extreme"
  },
  {
    "name": "Bunker",
    "lat": 48.5083375,
    "lng": 9.0607656,
    "beschreibung": "Bunker is a unique lost place full of history and mystery. It attracts adventurers, photographers, and history enthusiasts.",
    "category": "Orphanage",
    "schwierigkeit": "Medium"
  },
  {
    "name": "Haus des Künstlers",
    "lat": 48.1381125,
    "lng": 9.2103594,
    "beschreibung": "Haus des Künstlers is a unique lost place full of history and mystery. It attracts adventurers, photographers, and history enthusiasts.",
    "category": "Bunker",
    "schwierigkeit": "Extreme"
  },
  {
    "name": "Villa Mattenhof",
    "lat": 47.8227875,
    "lng": 8.1748281,
    "beschreibung": "Villa Mattenhof is a unique lost place full of history and mystery. It attracts adventurers, photographers, and history enthusiasts.",
    "category": "Hotel",
    "schwierigkeit": "Hard"
  },
  {
    "name": "Hotel st.Anna",
    "lat": 48.4518125,
    "lng": 8.2424844,
    "beschreibung": "Hotel st.Anna is a unique lost place full of history and mystery. It attracts adventurers, photographers, and history enthusiasts.",
    "category": "Orphanage",
    "schwierigkeit": "Hard"
  },
  {
    "name": "Bahnstation",
    "lat": 48.7579375,
    "lng": 9.1250781,
    "beschreibung": "Bahnstation is a unique lost place full of history and mystery. It attracts adventurers, photographers, and history enthusiasts.",
    "category": "Industry",
    "schwierigkeit": "Medium"
  },
  {
    "name": "Gasthof Schiff",
    "lat": 48.6065625,
    "lng": 8.3674375,
    "beschreibung": "Gasthof Schiff is a unique lost place full of history and mystery. It attracts adventurers, photographers, and history enthusiasts.",
    "category": "Holiday Camp",
    "schwierigkeit": "Extreme"
  },
  {
    "name": "Haus mit unterirdische Miene",
    "lat": 49.2024125,
    "lng": 9.6570469,
    "beschreibung": "Haus mit unterirdische Miene is a unique lost place full of history and mystery. It attracts adventurers, photographers, and history enthusiasts.",
    "category": "Barracks",
    "schwierigkeit": "Easy"
  },
  {
    "name": "Baumarkt",
    "lat": 48.7578625,
    "lng": 8.8674844,
    "beschreibung": "Baumarkt is a unique lost place full of history and mystery. It attracts adventurers, photographers, and history enthusiasts.",
    "category": "Factory",
    "schwierigkeit": "Easy"
  },
  {
    "name": "Waldfreibad",
    "lat": 48.7763625,
    "lng": 9.0610781,
    "beschreibung": "Waldfreibad is a unique lost place full of history and mystery. It attracts adventurers, photographers, and history enthusiasts.",
    "category": "Industry",
    "schwierigkeit": "Extreme"
  },
  {
    "name": "Bauernhaus",
    "lat": 48.5705625,
    "lng": 9.5910469,
    "beschreibung": "Bauernhaus is a unique lost place full of history and mystery. It attracts adventurers, photographers, and history enthusiasts.",
    "category": "Factory",
    "schwierigkeit": "Medium"
  },
  {
    "name": "Haus",
    "lat": 48.5505625,
    "lng": 9.6343906,
    "beschreibung": "Haus is a unique lost place full of history and mystery. It attracts adventurers, photographers, and history enthusiasts.",
    "category": "School",
    "schwierigkeit": "Hard"
  },
  {
    "name": "Kindergarten",
    "lat": 49.4861875,
    "lng": 8.4306406,
    "beschreibung": "Kindergarten is a unique lost place full of history and mystery. It attracts adventurers, photographers, and history enthusiasts.",
    "category": "Holiday Camp",
    "schwierigkeit": "Easy"
  },
  {
    "name": "Bunker",
    "lat": 47.6622375,
    "lng": 7.5303281,
    "beschreibung": "Bunker is a unique lost place full of history and mystery. It attracts adventurers, photographers, and history enthusiasts.",
    "category": "Industry",
    "schwierigkeit": "Easy"
  },
  {
    "name": "LKW Friedhof",
    "lat": 47.6459875,
    "lng": 9.5072344,
    "beschreibung": "LKW Friedhof is a unique lost place full of history and mystery. It attracts adventurers, photographers, and history enthusiasts.",
    "category": "Bunker",
    "schwierigkeit": "Hard"
  },
  {
    "name": "Wohnhäuser",
    "lat": 49.3002875,
    "lng": 8.8769531,
    "beschreibung": "Wohnhäuser is a unique lost place full of history and mystery. It attracts adventurers, photographers, and history enthusiasts.",
    "category": "Barracks",
    "schwierigkeit": "Medium"
  },
  {
    "name": "Luisenklinik",
    "lat": 48.0124125,
    "lng": 8.5463594,
    "beschreibung": "Luisenklinik is a unique lost place full of history and mystery. It attracts adventurers, photographers, and history enthusiasts.",
    "category": "Hotel",
    "schwierigkeit": "Extreme"
  },
  {
    "name": "Suchtklinik Glöcklehof",
    "lat": 47.8442125,
    "lng": 8.1799531,
    "beschreibung": "Suchtklinik Glöcklehof is a unique lost place full of history and mystery. It attracts adventurers, photographers, and history enthusiasts.",
    "category": "Hospital",
    "schwierigkeit": "Extreme"
  },
  {
    "name": "Kinderklinik",
    "lat": 49.4138125,
    "lng": 8.6676719,
    "beschreibung": "Kinderklinik is a unique lost place full of history and mystery. It attracts adventurers, photographers, and history enthusiasts.",
    "category": "Orphanage",
    "schwierigkeit": "Easy"
  },
  {
    "name": "Hotel Kreidacher Höhe",
    "lat": 49.5650405,
    "lng": 8.8106598,
    "beschreibung": "Hotel Kreidacher Höhe is a unique lost place full of history and mystery. It attracts adventurers, photographers, and history enthusiasts.",
    "category": "Hotel",
    "schwierigkeit": "Extreme"
  },
  {
    "name": "Schimmelklinik",
    "lat": 48.6588625,
    "lng": 8.2329531,
    "beschreibung": "Schimmelklinik is a unique lost place full of history and mystery. It attracts adventurers, photographers, and history enthusiasts.",
    "category": "Industry",
    "schwierigkeit": "Easy"
  },
  {
    "name": "Krankenhaus",
    "lat": 48.7466625,
    "lng": 8.5509844,
    "beschreibung": "Krankenhaus is a unique lost place full of history and mystery. It attracts adventurers, photographers, and history enthusiasts.",
    "category": "Hotel",
    "schwierigkeit": "Hard"
  },
  {
    "name": "Ziegelei",
    "lat": 47.9031625,
    "lng": 9.0278906,
    "beschreibung": "Ziegelei is a unique lost place full of history and mystery. It attracts adventurers, photographers, and history enthusiasts.",
    "category": "Hotel",
    "schwierigkeit": "Easy"
  },
  {
    "name": "Textilveredelung",
    "lat": 47.6832625,
    "lng": 9.8475781,
    "beschreibung": "Textilveredelung is a unique lost place full of history and mystery. It attracts adventurers, photographers, and history enthusiasts.",
    "category": "Bunker",
    "schwierigkeit": "Hard"
  },
  {
    "name": "Gesundheitsamt",
    "lat": 48.8534375,
    "lng": 8.2038594,
    "beschreibung": "Gesundheitsamt is a unique lost place full of history and mystery. It attracts adventurers, photographers, and history enthusiasts.",
    "category": "Orphanage",
    "schwierigkeit": "Easy"
  },
  {
    "name": "Waffenfabrik",
    "lat": 48.8507857,
    "lng": 8.2106594,
    "beschreibung": "Waffenfabrik is a unique lost place full of history and mystery. It attracts adventurers, photographers, and history enthusiasts.",
    "category": "Holiday Camp",
    "schwierigkeit": "Hard"
  },
  {
    "name": "Altenheim",
    "lat": 48.7575625,
    "lng": 10.3297969,
    "beschreibung": "Altenheim is a unique lost place full of history and mystery. It attracts adventurers, photographers, and history enthusiasts.",
    "category": "Residential",
    "schwierigkeit": "Medium"
  },
  {
    "name": "Gießerei",
    "lat": 48.9984375,
    "lng": 8.8017656,
    "beschreibung": "Gießerei is a unique lost place full of history and mystery. It attracts adventurers, photographers, and history enthusiasts.",
    "category": "School",
    "schwierigkeit": "Easy"
  },
  {
    "name": "Sanatorium Fürstenhof",
    "lat": 48.4063125,
    "lng": 8.7719219,
    "beschreibung": "Sanatorium Fürstenhof is a unique lost place full of history and mystery. It attracts adventurers, photographers, and history enthusiasts.",
    "category": "Bunker",
    "schwierigkeit": "Extreme"
  },
  {
    "name": "Tuchfabrik",
    "lat": 48.4616375,
    "lng": 8.4057031,
    "beschreibung": "Tuchfabrik is a unique lost place full of history and mystery. It attracts adventurers, photographers, and history enthusiasts.",
    "category": "Orphanage",
    "schwierigkeit": "Extreme"
  },
  {
    "name": "Kieswerk",
    "lat": 47.9198875,
    "lng": 9.0611094,
    "beschreibung": "Kieswerk is a unique lost place full of history and mystery. It attracts adventurers, photographers, and history enthusiasts.",
    "category": "Industry",
    "schwierigkeit": "Hard"
  },
  {
    "name": "Bus",
    "lat": 48.3203625,
    "lng": 9.1035781,
    "beschreibung": "Bus is a unique lost place full of history and mystery. It attracts adventurers, photographers, and history enthusiasts.",
    "category": "Holiday Camp",
    "schwierigkeit": "Easy"
  },
  {
    "name": "Altenheim",
    "lat": 49.4385375,
    "lng": 9.0033281,
    "beschreibung": "Altenheim is a unique lost place full of history and mystery. It attracts adventurers, photographers, and history enthusiasts.",
    "category": "Hospital",
    "schwierigkeit": "Extreme"
  },
  {
    "name": "Tonishof",
    "lat": 48.1416625,
    "lng": 8.4099844,
    "beschreibung": "Tonishof is a unique lost place full of history and mystery. It attracts adventurers, photographers, and history enthusiasts.",
    "category": "School",
    "schwierigkeit": "Extreme"
  },
  {
    "name": "Papierfabrik",
    "lat": 48.7111125,
    "lng": 8.3651719,
    "beschreibung": "Papierfabrik is a unique lost place full of history and mystery. It attracts adventurers, photographers, and history enthusiasts.",
    "category": "School",
    "schwierigkeit": "Medium"
  },
  {
    "name": "Hotel Alpenpanorama",
    "lat": 47.732775,
    "lng": 8.1697273,
    "beschreibung": "Hotel Alpenpanorama is a unique lost place full of history and mystery. It attracts adventurers, photographers, and history enthusiasts.",
    "category": "Factory",
    "schwierigkeit": "Easy"
  },
  {
    "name": "Ziegelei",
    "lat": 49.3418125,
    "lng": 8.4776719,
    "beschreibung": "Ziegelei is a unique lost place full of history and mystery. It attracts adventurers, photographers, and history enthusiasts.",
    "category": "School",
    "schwierigkeit": "Easy"
  },
  {
    "name": "Auto",
    "lat": 49.0453125,
    "lng": 9.1740469,
    "beschreibung": "Auto is a unique lost place full of history and mystery. It attracts adventurers, photographers, and history enthusiasts.",
    "category": "Residential",
    "schwierigkeit": "Easy"
  },
  {
    "name": "Gärtnerei",
    "lat": 48.6138125,
    "lng": 9.5109219,
    "beschreibung": "Gärtnerei is a unique lost place full of history and mystery. It attracts adventurers, photographers, and history enthusiasts.",
    "category": "Factory",
    "schwierigkeit": "Hard"
  },
  {
    "name": "Papierfabrik",
    "lat": 48.6970625,
    "lng": 8.3518281,
    "beschreibung": "Papierfabrik is a unique lost place full of history and mystery. It attracts adventurers, photographers, and history enthusiasts.",
    "category": "Industry",
    "schwierigkeit": "Medium"
  },
  {
    "name": "Kino",
    "lat": 48.7180625,
    "lng": 8.7387969,
    "beschreibung": "Kino is a unique lost place full of history and mystery. It attracts adventurers, photographers, and history enthusiasts.",
    "category": "Hospital",
    "schwierigkeit": "Medium"
  },
  {
    "name": "Gärtnerei",
    "lat": 49.4126875,
    "lng": 8.6569219,
    "beschreibung": "Gärtnerei is a unique lost place full of history and mystery. It attracts adventurers, photographers, and history enthusiasts.",
    "category": "Residential",
    "schwierigkeit": "Extreme"
  },
  {
    "name": "Ausbesserungswerk",
    "lat": 49.3919375,
    "lng": 8.5785314,
    "beschreibung": "Ausbesserungswerk is a unique lost place full of history and mystery. It attracts adventurers, photographers, and history enthusiasts.",
    "category": "Residential",
    "schwierigkeit": "Easy"
  },
  {
    "name": "Schwimmbad",
    "lat": 48.8076951,
    "lng": 9.3578218,
    "beschreibung": "Schwimmbad is a unique lost place full of history and mystery. It attracts adventurers, photographers, and history enthusiasts.",
    "category": "Holiday Camp",
    "schwierigkeit": "Hard"
  },
  {
    "name": "Auto",
    "lat": 48.4808625,
    "lng": 9.2052969,
    "beschreibung": "Auto is a unique lost place full of history and mystery. It attracts adventurers, photographers, and history enthusiasts.",
    "category": "Holiday Camp",
    "schwierigkeit": "Easy"
  },
  {
    "name": "Trainingscenter",
    "lat": 49.4042289,
    "lng": 8.5616486,
    "beschreibung": "Trainingscenter is a unique lost place full of history and mystery. It attracts adventurers, photographers, and history enthusiasts.",
    "category": "Orphanage",
    "schwierigkeit": "Hard"
  },
  {
    "name": "Hotel der zwei Schwestern",
    "lat": 48.1478625,
    "lng": 8.2409844,
    "beschreibung": "Hotel der zwei Schwestern is a unique lost place full of history and mystery. It attracts adventurers, photographers, and history enthusiasts.",
    "category": "Factory",
    "schwierigkeit": "Easy"
  },
  {
    "name": "Haus",
    "lat": 48.1384464,
    "lng": 9.2100965,
    "beschreibung": "Haus is a unique lost place full of history and mystery. It attracts adventurers, photographers, and history enthusiasts.",
    "category": "Hospital",
    "schwierigkeit": "Hard"
  },
  {
    "name": "Forsthaus",
    "lat": 48.1371885,
    "lng": 9.2109764,
    "beschreibung": "Forsthaus is a unique lost place full of history and mystery. It attracts adventurers, photographers, and history enthusiasts.",
    "category": "Barracks",
    "schwierigkeit": "Medium"
  },
  {
    "name": "Villa Sommerberg",
    "lat": 48.4366125,
    "lng": 8.3173594,
    "beschreibung": "Villa Sommerberg is a unique lost place full of history and mystery. It attracts adventurers, photographers, and history enthusiasts.",
    "category": "School",
    "schwierigkeit": "Extreme"
  },
  {
    "name": "Schwarzwaldklinik",
    "lat": 48.4357342,
    "lng": 8.3183414,
    "beschreibung": "Schwarzwaldklinik is a unique lost place full of history and mystery. It attracts adventurers, photographers, and history enthusiasts.",
    "category": "Factory",
    "schwierigkeit": "Extreme"
  },
  {
    "name": "US Airfield",
    "lat": 49.3923307,
    "lng": 8.6541593,
    "beschreibung": "US Airfield is a unique lost place full of history and mystery. It attracts adventurers, photographers, and history enthusiasts.",
    "category": "Bunker",
    "schwierigkeit": "Easy"
  },
  {
    "name": "Auto",
    "lat": 48.2892125,
    "lng": 8.7070156,
    "beschreibung": "Auto is a unique lost place full of history and mystery. It attracts adventurers, photographers, and history enthusiasts.",
    "category": "Orphanage",
    "schwierigkeit": "Hard"
  },
  {
    "name": "Gerberei",
    "lat": 47.8079125,
    "lng": 9.2946094,
    "beschreibung": "Gerberei is a unique lost place full of history and mystery. It attracts adventurers, photographers, and history enthusiasts.",
    "category": "Holiday Camp",
    "schwierigkeit": "Easy"
  },
  {
    "name": "Schlossruine",
    "lat": 49.1438375,
    "lng": 8.7710156,
    "beschreibung": "Schlossruine is a unique lost place full of history and mystery. It attracts adventurers, photographers, and history enthusiasts.",
    "category": "Hotel",
    "schwierigkeit": "Extreme"
  },
  {
    "name": "Kaserne",
    "lat": 49.4072242,
    "lng": 8.5607696,
    "beschreibung": "Kaserne is a unique lost place full of history and mystery. It attracts adventurers, photographers, and history enthusiasts.",
    "category": "Industry",
    "schwierigkeit": "Extreme"
  },
  {
    "name": "Altenheim",
    "lat": 49.4749125,
    "lng": 8.6831719,
    "beschreibung": "Altenheim is a unique lost place full of history and mystery. It attracts adventurers, photographers, and history enthusiasts.",
    "category": "School",
    "schwierigkeit": "Extreme"
  },
  {
    "name": "Hotel",
    "lat": 48.4545625,
    "lng": 8.4254844,
    "beschreibung": "Hotel is a unique lost place full of history and mystery. It attracts adventurers, photographers, and history enthusiasts.",
    "category": "Orphanage",
    "schwierigkeit": "Hard"
  },
  {
    "name": "Haus des Computerfreaks",
    "lat": 48.0775375,
    "lng": 9.2921406,
    "beschreibung": "Haus des Computerfreaks is a unique lost place full of history and mystery. It attracts adventurers, photographers, and history enthusiasts.",
    "category": "Hospital",
    "schwierigkeit": "Easy"
  },
  {
    "name": "Metzgerei",
    "lat": 48.6145625,
    "lng": 8.2777969,
    "beschreibung": "Metzgerei is a unique lost place full of history and mystery. It attracts adventurers, photographers, and history enthusiasts.",
    "category": "Bunker",
    "schwierigkeit": "Medium"
  },
  {
    "name": "Hotel",
    "lat": 48.6138125,
    "lng": 8.2778281,
    "beschreibung": "Hotel is a unique lost place full of history and mystery. It attracts adventurers, photographers, and history enthusiasts.",
    "category": "Holiday Camp",
    "schwierigkeit": "Medium"
  },
  {
    "name": "Charlottenhöhe / Lunghenheilanstalt",
    "lat": 48.7838625,
    "lng": 8.6004531,
    "beschreibung": "Charlottenhöhe / Lunghenheilanstalt is a unique lost place full of history and mystery. It attracts adventurers, photographers, and history enthusiasts.",
    "category": "Barracks",
    "schwierigkeit": "Easy"
  },
  {
    "name": "Haus der Schwarzwaldmarie",
    "lat": 48.0062375,
    "lng": 8.2881406,
    "beschreibung": "Haus der Schwarzwaldmarie is a unique lost place full of history and mystery. It attracts adventurers, photographers, and history enthusiasts.",
    "category": "Bunker",
    "schwierigkeit": "Medium"
  },
  {
    "name": "Haus",
    "lat": 50.1541125,
    "lng": 11.5154844,
    "beschreibung": "Haus is a unique lost place full of history and mystery. It attracts adventurers, photographers, and history enthusiasts.",
    "category": "Hotel",
    "schwierigkeit": "Medium"
  },
  {
    "name": "Haus",
    "lat": 49.9917875,
    "lng": 9.5845781,
    "beschreibung": "Haus is a unique lost place full of history and mystery. It attracts adventurers, photographers, and history enthusiasts.",
    "category": "Bunker",
    "schwierigkeit": "Hard"
  },
  {
    "name": "Bauernhof",
    "lat": 50.0286125,
    "lng": 9.6392969,
    "beschreibung": "Bauernhof is a unique lost place full of history and mystery. It attracts adventurers, photographers, and history enthusiasts.",
    "category": "Residential",
    "schwierigkeit": "Medium"
  },
  {
    "name": "Restaurant",
    "lat": 49.9785625,
    "lng": 9.4621875,
    "beschreibung": "Restaurant is a unique lost place full of history and mystery. It attracts adventurers, photographers, and history enthusiasts.",
    "category": "School",
    "schwierigkeit": "Easy"
  },
  {
    "name": "Hallenbad",
    "lat": 50.2469576,
    "lng": 10.2062929,
    "beschreibung": "Hallenbad is a unique lost place full of history and mystery. It attracts adventurers, photographers, and history enthusiasts.",
    "category": "Bunker",
    "schwierigkeit": "Hard"
  },
  {
    "name": "Haus",
    "lat": 49.4496625,
    "lng": 12.4302969,
    "beschreibung": "Haus is a unique lost place full of history and mystery. It attracts adventurers, photographers, and history enthusiasts.",
    "category": "School",
    "schwierigkeit": "Extreme"
  },
  {
    "name": "Haus",
    "lat": 48.2011098,
    "lng": 11.4731883,
    "beschreibung": "Haus is a unique lost place full of history and mystery. It attracts adventurers, photographers, and history enthusiasts.",
    "category": "Hotel",
    "schwierigkeit": "Easy"
  },
  {
    "name": "Haus",
    "lat": 50.1966625,
    "lng": 10.0480156,
    "beschreibung": "Haus is a unique lost place full of history and mystery. It attracts adventurers, photographers, and history enthusiasts.",
    "category": "Holiday Camp",
    "schwierigkeit": "Extreme"
  },
  {
    "name": "Gärtnerei",
    "lat": 50.1873125,
    "lng": 10.0796406,
    "beschreibung": "Gärtnerei is a unique lost place full of history and mystery. It attracts adventurers, photographers, and history enthusiasts.",
    "category": "Industry",
    "schwierigkeit": "Extreme"
  },
  {
    "name": "Jugendherberge",
    "lat": 47.4132585,
    "lng": 10.258302,
    "beschreibung": "Jugendherberge is a unique lost place full of history and mystery. It attracts adventurers, photographers, and history enthusiasts.",
    "category": "Hospital",
    "schwierigkeit": "Hard"
  },
  {
    "name": "Haus",
    "lat": 49.386223,
    "lng": 10.9601416,
    "beschreibung": "Haus is a unique lost place full of history and mystery. It attracts adventurers, photographers, and history enthusiasts.",
    "category": "Barracks",
    "schwierigkeit": "Extreme"
  },
  {
    "name": "Pumpwerk",
    "lat": 47.7621375,
    "lng": 11.3994219,
    "beschreibung": "Pumpwerk is a unique lost place full of history and mystery. It attracts adventurers, photographers, and history enthusiasts.",
    "category": "Factory",
    "schwierigkeit": "Hard"
  },
  {
    "name": "Kran",
    "lat": 49.8008845,
    "lng": 9.8841988,
    "beschreibung": "Kran is a unique lost place full of history and mystery. It attracts adventurers, photographers, and history enthusiasts.",
    "category": "Factory",
    "schwierigkeit": "Hard"
  },
  {
    "name": "Sanatorium Apolant",
    "lat": 50.1962875,
    "lng": 10.0812656,
    "beschreibung": "Sanatorium Apolant is a unique lost place full of history and mystery. It attracts adventurers, photographers, and history enthusiasts.",
    "category": "Industry",
    "schwierigkeit": "Easy"
  },
  {
    "name": "Schlachthof",
    "lat": 50.1878352,
    "lng": 10.0757662,
    "beschreibung": "Schlachthof is a unique lost place full of history and mystery. It attracts adventurers, photographers, and history enthusiasts.",
    "category": "Hotel",
    "schwierigkeit": "Easy"
  },
  {
    "name": "Pilz Haus mit Hausschwamm",
    "lat": 50.0889875,
    "lng": 11.9216094,
    "beschreibung": "Pilz Haus mit Hausschwamm is a unique lost place full of history and mystery. It attracts adventurers, photographers, and history enthusiasts.",
    "category": "Hospital",
    "schwierigkeit": "Extreme"
  },
  {
    "name": "Haus",
    "lat": 47.5399125,
    "lng": 9.8581719,
    "beschreibung": "Haus is a unique lost place full of history and mystery. It attracts adventurers, photographers, and history enthusiasts.",
    "category": "Hospital",
    "schwierigkeit": "Medium"
  },
  {
    "name": "Ferienpark",
    "lat": 48.9234625,
    "lng": 13.0794844,
    "beschreibung": "Ferienpark is a unique lost place full of history and mystery. It attracts adventurers, photographers, and history enthusiasts.",
    "category": "Barracks",
    "schwierigkeit": "Medium"
  },
  {
    "name": "Bauernhof",
    "lat": 50.338201,
    "lng": 11.9261431,
    "beschreibung": "Bauernhof is a unique lost place full of history and mystery. It attracts adventurers, photographers, and history enthusiasts.",
    "category": "Industry",
    "schwierigkeit": "Hard"
  },
  {
    "name": "Kaufhaus",
    "lat": 48.2408375,
    "lng": 12.6949219,
    "beschreibung": "Kaufhaus is a unique lost place full of history and mystery. It attracts adventurers, photographers, and history enthusiasts.",
    "category": "Residential",
    "schwierigkeit": "Hard"
  },
  {
    "name": "Federballfabrik",
    "lat": 49.7080375,
    "lng": 11.0637656,
    "beschreibung": "Federballfabrik is a unique lost place full of history and mystery. It attracts adventurers, photographers, and history enthusiasts.",
    "category": "Residential",
    "schwierigkeit": "Easy"
  },
  {
    "name": "Haus",
    "lat": 49.9229625,
    "lng": 11.0731719,
    "beschreibung": "Haus is a unique lost place full of history and mystery. It attracts adventurers, photographers, and history enthusiasts.",
    "category": "Orphanage",
    "schwierigkeit": "Extreme"
  },
  {
    "name": "Bahnbetriebswerk",
    "lat": 48.1343625,
    "lng": 11.6234844,
    "beschreibung": "Bahnbetriebswerk is a unique lost place full of history and mystery. It attracts adventurers, photographers, and history enthusiasts.",
    "category": "Bunker",
    "schwierigkeit": "Medium"
  },
  {
    "name": "Zollhaus",
    "lat": 48.1505054,
    "lng": 10.8692468,
    "beschreibung": "Zollhaus is a unique lost place full of history and mystery. It attracts adventurers, photographers, and history enthusiasts.",
    "category": "Factory",
    "schwierigkeit": "Hard"
  },
  {
    "name": "Bauernhof",
    "lat": 48.6721125,
    "lng": 12.5907969,
    "beschreibung": "Bauernhof is a unique lost place full of history and mystery. It attracts adventurers, photographers, and history enthusiasts.",
    "category": "Bunker",
    "schwierigkeit": "Hard"
  },
  {
    "name": "Bauernhof",
    "lat": 48.6743229,
    "lng": 12.7480115,
    "beschreibung": "Bauernhof is a unique lost place full of history and mystery. It attracts adventurers, photographers, and history enthusiasts.",
    "category": "Hospital",
    "schwierigkeit": "Easy"
  },
  {
    "name": "Haus",
    "lat": 48.6949318,
    "lng": 12.807596,
    "beschreibung": "Haus is a unique lost place full of history and mystery. It attracts adventurers, photographers, and history enthusiasts.",
    "category": "Factory",
    "schwierigkeit": "Medium"
  },
  {
    "name": "Haus",
    "lat": 48.6052258,
    "lng": 13.3171416,
    "beschreibung": "Haus is a unique lost place full of history and mystery. It attracts adventurers, photographers, and history enthusiasts.",
    "category": "Hotel",
    "schwierigkeit": "Easy"
  },
  {
    "name": "Haus",
    "lat": 50.0694385,
    "lng": 11.0639512,
    "beschreibung": "Haus is a unique lost place full of history and mystery. It attracts adventurers, photographers, and history enthusiasts.",
    "category": "Holiday Camp",
    "schwierigkeit": "Medium"
  },
  {
    "name": "Gogo Scheune",
    "lat": 48.3672625,
    "lng": 12.7876406,
    "beschreibung": "Gogo Scheune is a unique lost place full of history and mystery. It attracts adventurers, photographers, and history enthusiasts.",
    "category": "Hospital",
    "schwierigkeit": "Medium"
  },
  {
    "name": "Lokschuppen",
    "lat": 49.9818815,
    "lng": 9.1563752,
    "beschreibung": "Lokschuppen is a unique lost place full of history and mystery. It attracts adventurers, photographers, and history enthusiasts.",
    "category": "Residential",
    "schwierigkeit": "Extreme"
  },
  {
    "name": "Jagdhaus",
    "lat": 48.0660625,
    "lng": 10.5617656,
    "beschreibung": "Jagdhaus is a unique lost place full of history and mystery. It attracts adventurers, photographers, and history enthusiasts.",
    "category": "Bunker",
    "schwierigkeit": "Hard"
  },
  {
    "name": "Kirche",
    "lat": 50.1208125,
    "lng": 9.7379375,
    "beschreibung": "Kirche is a unique lost place full of history and mystery. It attracts adventurers, photographers, and history enthusiasts.",
    "category": "Orphanage",
    "schwierigkeit": "Easy"
  },
  {
    "name": "Gärtnerei mit Wohnhaus",
    "lat": 47.7701125,
    "lng": 11.5542656,
    "beschreibung": "Gärtnerei mit Wohnhaus is a unique lost place full of history and mystery. It attracts adventurers, photographers, and history enthusiasts.",
    "category": "Holiday Camp",
    "schwierigkeit": "Easy"
  },
  {
    "name": "Porzellanfabrik Arzberg",
    "lat": 50.0581192,
    "lng": 12.1840573,
    "beschreibung": "Porzellanfabrik Arzberg is a unique lost place full of history and mystery. It attracts adventurers, photographers, and history enthusiasts.",
    "category": "Residential",
    "schwierigkeit": "Medium"
  },
  {
    "name": "Kinderheim",
    "lat": 50.1969367,
    "lng": 10.088479,
    "beschreibung": "Kinderheim is a unique lost place full of history and mystery. It attracts adventurers, photographers, and history enthusiasts.",
    "category": "Industry",
    "schwierigkeit": "Extreme"
  },
  {
    "name": "Nabucco Glasfabrik",
    "lat": 49.7935694,
    "lng": 12.1650221,
    "beschreibung": "Nabucco Glasfabrik is a unique lost place full of history and mystery. It attracts adventurers, photographers, and history enthusiasts.",
    "category": "Hospital",
    "schwierigkeit": "Easy"
  },
  {
    "name": "Kieswerk",
    "lat": 48.4275847,
    "lng": 10.0760737,
    "beschreibung": "Kieswerk is a unique lost place full of history and mystery. It attracts adventurers, photographers, and history enthusiasts.",
    "category": "School",
    "schwierigkeit": "Hard"
  },
  {
    "name": "Gasthaus",
    "lat": 48.3545802,
    "lng": 10.1608933,
    "beschreibung": "Gasthaus is a unique lost place full of history and mystery. It attracts adventurers, photographers, and history enthusiasts.",
    "category": "Orphanage",
    "schwierigkeit": "Easy"
  },
  {
    "name": "Bauernhof",
    "lat": 48.6932194,
    "lng": 10.750255,
    "beschreibung": "Bauernhof is a unique lost place full of history and mystery. It attracts adventurers, photographers, and history enthusiasts.",
    "category": "Holiday Camp",
    "schwierigkeit": "Medium"
  },
  {
    "name": "Mühle",
    "lat": 49.0390625,
    "lng": 11.3652969,
    "beschreibung": "Mühle is a unique lost place full of history and mystery. It attracts adventurers, photographers, and history enthusiasts.",
    "category": "Factory",
    "schwierigkeit": "Easy"
  },
  {
    "name": "Stanggaß Klinik",
    "lat": 47.6313366,
    "lng": 12.9853522,
    "beschreibung": "Stanggaß Klinik is a unique lost place full of history and mystery. It attracts adventurers, photographers, and history enthusiasts.",
    "category": "Hospital",
    "schwierigkeit": "Hard"
  },
  {
    "name": "Hütte",
    "lat": 47.4235625,
    "lng": 10.2566719,
    "beschreibung": "Hütte is a unique lost place full of history and mystery. It attracts adventurers, photographers, and history enthusiasts.",
    "category": "School",
    "schwierigkeit": "Easy"
  },
  {
    "name": "Haus des Busfahrers",
    "lat": 50.3957875,
    "lng": 11.4465781,
    "beschreibung": "Haus des Busfahrers is a unique lost place full of history and mystery. It attracts adventurers, photographers, and history enthusiasts.",
    "category": "Orphanage",
    "schwierigkeit": "Easy"
  },
  {
    "name": "Autofriedhof",
    "lat": 50.5237568,
    "lng": 10.1402003,
    "beschreibung": "Autofriedhof is a unique lost place full of history and mystery. It attracts adventurers, photographers, and history enthusiasts.",
    "category": "Factory",
    "schwierigkeit": "Extreme"
  },
  {
    "name": "Haus",
    "lat": 50.1463125,
    "lng": 11.7463125,
    "beschreibung": "Haus is a unique lost place full of history and mystery. It attracts adventurers, photographers, and history enthusiasts.",
    "category": "Residential",
    "schwierigkeit": "Easy"
  },
  {
    "name": "Holzkistenfabrik",
    "lat": 49.6275875,
    "lng": 11.9028906,
    "beschreibung": "Holzkistenfabrik is a unique lost place full of history and mystery. It attracts adventurers, photographers, and history enthusiasts.",
    "category": "Orphanage",
    "schwierigkeit": "Medium"
  },
  {
    "name": "Presshefefabrik",
    "lat": 50.2719625,
    "lng": 11.9301406,
    "beschreibung": "Presshefefabrik is a unique lost place full of history and mystery. It attracts adventurers, photographers, and history enthusiasts.",
    "category": "Bunker",
    "schwierigkeit": "Extreme"
  },
  {
    "name": "84G3+546",
    "lat": 49.3253705,
    "lng": 12.1024062,
    "beschreibung": "84G3+546 is a unique lost place full of history and mystery. It attracts adventurers, photographers, and history enthusiasts.",
    "category": "Orphanage",
    "schwierigkeit": "Hard"
  },
  {
    "name": "Porzellanfabrik",
    "lat": 50.2163999,
    "lng": 11.9520971,
    "beschreibung": "Porzellanfabrik is a unique lost place full of history and mystery. It attracts adventurers, photographers, and history enthusiasts.",
    "category": "Hospital",
    "schwierigkeit": "Easy"
  },
  {
    "name": "Feriendorf",
    "lat": 47.5976749,
    "lng": 9.8390413,
    "beschreibung": "Feriendorf is a unique lost place full of history and mystery. It attracts adventurers, photographers, and history enthusiasts.",
    "category": "Factory",
    "schwierigkeit": "Extreme"
  },
  {
    "name": "Skisprungschanze",
    "lat": 47.5732625,
    "lng": 9.8374844,
    "beschreibung": "Skisprungschanze is a unique lost place full of history and mystery. It attracts adventurers, photographers, and history enthusiasts.",
    "category": "Holiday Camp",
    "schwierigkeit": "Extreme"
  },
  {
    "name": "Feriendorf",
    "lat": 47.6136375,
    "lng": 9.8978281,
    "beschreibung": "Feriendorf is a unique lost place full of history and mystery. It attracts adventurers, photographers, and history enthusiasts.",
    "category": "School",
    "schwierigkeit": "Easy"
  },
  {
    "name": "Rutzenhof",
    "lat": 48.9197125,
    "lng": 10.9086094,
    "beschreibung": "Rutzenhof is a unique lost place full of history and mystery. It attracts adventurers, photographers, and history enthusiasts.",
    "category": "Factory",
    "schwierigkeit": "Extreme"
  },
  {
    "name": "Munitionslager",
    "lat": 49.1208625,
    "lng": 10.8783281,
    "beschreibung": "Munitionslager is a unique lost place full of history and mystery. It attracts adventurers, photographers, and history enthusiasts.",
    "category": "Industry",
    "schwierigkeit": "Hard"
  },
  {
    "name": "Stuhlfabrik",
    "lat": 50.9116375,
    "lng": 13.4888594,
    "beschreibung": "Stuhlfabrik is a unique lost place full of history and mystery. It attracts adventurers, photographers, and history enthusiasts.",
    "category": "Holiday Camp",
    "schwierigkeit": "Hard"
  },
  {
    "name": "Sonderwaffenlager",
    "lat": 49.7274625,
    "lng": 10.1126094,
    "beschreibung": "Sonderwaffenlager is a unique lost place full of history and mystery. It attracts adventurers, photographers, and history enthusiasts.",
    "category": "Industry",
    "schwierigkeit": "Hard"
  },
  {
    "name": "Therme",
    "lat": 50.0131582,
    "lng": 11.8530791,
    "beschreibung": "Therme is a unique lost place full of history and mystery. It attracts adventurers, photographers, and history enthusiasts.",
    "category": "Bunker",
    "schwierigkeit": "Extreme"
  },
  {
    "name": "Gutshof",
    "lat": 49.9036488,
    "lng": 10.2152957,
    "beschreibung": "Gutshof is a unique lost place full of history and mystery. It attracts adventurers, photographers, and history enthusiasts.",
    "category": "School",
    "schwierigkeit": "Extreme"
  },
  {
    "name": "Schimmelhaus",
    "lat": 49.8141082,
    "lng": 9.9161996,
    "beschreibung": "Schimmelhaus is a unique lost place full of history and mystery. It attracts adventurers, photographers, and history enthusiasts.",
    "category": "Orphanage",
    "schwierigkeit": "Easy"
  },
  {
    "name": "Flaschenhaus",
    "lat": 50.1208625,
    "lng": 11.1777969,
    "beschreibung": "Flaschenhaus is a unique lost place full of history and mystery. It attracts adventurers, photographers, and history enthusiasts.",
    "category": "Bunker",
    "schwierigkeit": "Hard"
  },
  {
    "name": "Haus",
    "lat": 49.8748068,
    "lng": 11.17254,
    "beschreibung": "Haus is a unique lost place full of history and mystery. It attracts adventurers, photographers, and history enthusiasts.",
    "category": "School",
    "schwierigkeit": "Medium"
  },
  {
    "name": "Kläranlage",
    "lat": 50.1313046,
    "lng": 9.7281685,
    "beschreibung": "Kläranlage is a unique lost place full of history and mystery. It attracts adventurers, photographers, and history enthusiasts.",
    "category": "Industry",
    "schwierigkeit": "Medium"
  },
  {
    "name": "Kraftwerk",
    "lat": 47.8523737,
    "lng": 12.1111859,
    "beschreibung": "Kraftwerk is a unique lost place full of history and mystery. It attracts adventurers, photographers, and history enthusiasts.",
    "category": "Industry",
    "schwierigkeit": "Easy"
  },
  {
    "name": "Haus",
    "lat": 47.6620375,
    "lng": 11.2669844,
    "beschreibung": "Haus is a unique lost place full of history and mystery. It attracts adventurers, photographers, and history enthusiasts.",
    "category": "Orphanage",
    "schwierigkeit": "Easy"
  },
  {
    "name": "Forsthaus",
    "lat": 48.0879375,
    "lng": 11.1694531,
    "beschreibung": "Forsthaus is a unique lost place full of history and mystery. It attracts adventurers, photographers, and history enthusiasts.",
    "category": "Hotel",
    "schwierigkeit": "Extreme"
  },
  {
    "name": "NATO Überwachungsbunker",
    "lat": 49.1319125,
    "lng": 12.2247344,
    "beschreibung": "NATO Überwachungsbunker is a unique lost place full of history and mystery. It attracts adventurers, photographers, and history enthusiasts.",
    "category": "Factory",
    "schwierigkeit": "Extreme"
  },
  {
    "name": "Hotel",
    "lat": 52.5377452,
    "lng": 13.4740277,
    "beschreibung": "Hotel is a unique lost place full of history and mystery. It attracts adventurers, photographers, and history enthusiasts.",
    "category": "Industry",
    "schwierigkeit": "Extreme"
  },
  {
    "name": "Bahnhof",
    "lat": 52.5346875,
    "lng": 13.2761094,
    "beschreibung": "Bahnhof is a unique lost place full of history and mystery. It attracts adventurers, photographers, and history enthusiasts.",
    "category": "Factory",
    "schwierigkeit": "Easy"
  },
  {
    "name": "VEB Berlin Chemie",
    "lat": 52.4298875,
    "lng": 13.5554844,
    "beschreibung": "VEB Berlin Chemie is a unique lost place full of history and mystery. It attracts adventurers, photographers, and history enthusiasts.",
    "category": "Holiday Camp",
    "schwierigkeit": "Extreme"
  },
  {
    "name": "Haus des Perversen",
    "lat": 52.6272625,
    "lng": 13.2976719,
    "beschreibung": "Haus des Perversen is a unique lost place full of history and mystery. It attracts adventurers, photographers, and history enthusiasts.",
    "category": "Hotel",
    "schwierigkeit": "Extreme"
  },
  {
    "name": "Gaswerk Spandau",
    "lat": 52.5380647,
    "lng": 13.1288576,
    "beschreibung": "Gaswerk Spandau is a unique lost place full of history and mystery. It attracts adventurers, photographers, and history enthusiasts.",
    "category": "School",
    "schwierigkeit": "Extreme"
  },
  {
    "name": "Bunker",
    "lat": 52.4087875,
    "lng": 13.3874531,
    "beschreibung": "Bunker is a unique lost place full of history and mystery. It attracts adventurers, photographers, and history enthusiasts.",
    "category": "Bunker",
    "schwierigkeit": "Medium"
  },
  {
    "name": "Glyphosatwerk",
    "lat": 52.4839375,
    "lng": 13.7906406,
    "beschreibung": "Glyphosatwerk is a unique lost place full of history and mystery. It attracts adventurers, photographers, and history enthusiasts.",
    "category": "Hotel",
    "schwierigkeit": "Hard"
  },
  {
    "name": "Haus",
    "lat": 53.1842446,
    "lng": 8.6316566,
    "beschreibung": "Haus is a unique lost place full of history and mystery. It attracts adventurers, photographers, and history enthusiasts.",
    "category": "Orphanage",
    "schwierigkeit": "Extreme"
  },
  {
    "name": "Schule",
    "lat": 53.5948546,
    "lng": 9.9303501,
    "beschreibung": "Schule is a unique lost place full of history and mystery. It attracts adventurers, photographers, and history enthusiasts.",
    "category": "Barracks",
    "schwierigkeit": "Hard"
  },
  {
    "name": "Haus",
    "lat": 53.4504625,
    "lng": 10.1359531,
    "beschreibung": "Haus is a unique lost place full of history and mystery. It attracts adventurers, photographers, and history enthusiasts.",
    "category": "Holiday Camp",
    "schwierigkeit": "Easy"
  },
  {
    "name": "Waldhütten",
    "lat": 50.0954625,
    "lng": 8.0952344,
    "beschreibung": "Waldhütten is a unique lost place full of history and mystery. It attracts adventurers, photographers, and history enthusiasts.",
    "category": "Residential",
    "schwierigkeit": "Hard"
  },
  {
    "name": "Buchdruckerei",
    "lat": 49.8597125,
    "lng": 8.6246094,
    "beschreibung": "Buchdruckerei is a unique lost place full of history and mystery. It attracts adventurers, photographers, and history enthusiasts.",
    "category": "Hospital",
    "schwierigkeit": "Medium"
  },
  {
    "name": "DB Ausbildungsstätte",
    "lat": 51.2282875,
    "lng": 9.4665469,
    "beschreibung": "DB Ausbildungsstätte is a unique lost place full of history and mystery. It attracts adventurers, photographers, and history enthusiasts.",
    "category": "Bunker",
    "schwierigkeit": "Medium"
  },
  {
    "name": "Nachrichtenbunker",
    "lat": 50.5719375,
    "lng": 8.7100469,
    "beschreibung": "Nachrichtenbunker is a unique lost place full of history and mystery. It attracts adventurers, photographers, and history enthusiasts.",
    "category": "Factory",
    "schwierigkeit": "Extreme"
  },
  {
    "name": "U-Verlagerung",
    "lat": 50.3961625,
    "lng": 8.1845156,
    "beschreibung": "U-Verlagerung is a unique lost place full of history and mystery. It attracts adventurers, photographers, and history enthusiasts.",
    "category": "Hospital",
    "schwierigkeit": "Medium"
  },
  {
    "name": "Bahngelände",
    "lat": 51.3223625,
    "lng": 9.4643906,
    "beschreibung": "Bahngelände is a unique lost place full of history and mystery. It attracts adventurers, photographers, and history enthusiasts.",
    "category": "School",
    "schwierigkeit": "Medium"
  },
  {
    "name": "Fabrik",
    "lat": 51.3096375,
    "lng": 9.5234844,
    "beschreibung": "Fabrik is a unique lost place full of history and mystery. It attracts adventurers, photographers, and history enthusiasts.",
    "category": "Hotel",
    "schwierigkeit": "Medium"
  },
  {
    "name": "Sprengstofffabrik",
    "lat": 51.2339972,
    "lng": 9.7271486,
    "beschreibung": "Sprengstofffabrik is a unique lost place full of history and mystery. It attracts adventurers, photographers, and history enthusiasts.",
    "category": "Hospital",
    "schwierigkeit": "Hard"
  },
  {
    "name": "Mühle",
    "lat": 51.2084125,
    "lng": 9.9161406,
    "beschreibung": "Mühle is a unique lost place full of history and mystery. It attracts adventurers, photographers, and history enthusiasts.",
    "category": "Bunker",
    "schwierigkeit": "Hard"
  },
  {
    "name": "Disco",
    "lat": 51.1551375,
    "lng": 9.9859844,
    "beschreibung": "Disco is a unique lost place full of history and mystery. It attracts adventurers, photographers, and history enthusiasts.",
    "category": "School",
    "schwierigkeit": "Medium"
  },
  {
    "name": "Schloss Rittershain",
    "lat": 51.0514375,
    "lng": 9.8111406,
    "beschreibung": "Schloss Rittershain is a unique lost place full of history and mystery. It attracts adventurers, photographers, and history enthusiasts.",
    "category": "Residential",
    "schwierigkeit": "Easy"
  },
  {
    "name": "Pulvermühle Culture Club",
    "lat": 50.1193625,
    "lng": 8.9602656,
    "beschreibung": "Pulvermühle Culture Club is a unique lost place full of history and mystery. It attracts adventurers, photographers, and history enthusiasts.",
    "category": "Bunker",
    "schwierigkeit": "Easy"
  },
  {
    "name": "Fliesenfabrik",
    "lat": 50.5664125,
    "lng": 8.6846406,
    "beschreibung": "Fliesenfabrik is a unique lost place full of history and mystery. It attracts adventurers, photographers, and history enthusiasts.",
    "category": "Holiday Camp",
    "schwierigkeit": "Medium"
  },
  {
    "name": "Kaserne",
    "lat": 50.3701625,
    "lng": 8.6204219,
    "beschreibung": "Kaserne is a unique lost place full of history and mystery. It attracts adventurers, photographers, and history enthusiasts.",
    "category": "Factory",
    "schwierigkeit": "Medium"
  },
  {
    "name": "Asylheim",
    "lat": 50.1780184,
    "lng": 8.296898,
    "beschreibung": "Asylheim is a unique lost place full of history and mystery. It attracts adventurers, photographers, and history enthusiasts.",
    "category": "School",
    "schwierigkeit": "Hard"
  },
  {
    "name": "Panzer",
    "lat": 50.7892189,
    "lng": 9.0922553,
    "beschreibung": "Panzer is a unique lost place full of history and mystery. It attracts adventurers, photographers, and history enthusiasts.",
    "category": "Residential",
    "schwierigkeit": "Easy"
  },
  {
    "name": "Berufsinformationszentrum",
    "lat": 51.3205358,
    "lng": 9.4885813,
    "beschreibung": "Berufsinformationszentrum is a unique lost place full of history and mystery. It attracts adventurers, photographers, and history enthusiasts.",
    "category": "Holiday Camp",
    "schwierigkeit": "Hard"
  },
  {
    "name": "Eisenbahnerheim",
    "lat": 51.6414125,
    "lng": 9.4587031,
    "beschreibung": "Eisenbahnerheim is a unique lost place full of history and mystery. It attracts adventurers, photographers, and history enthusiasts.",
    "category": "Bunker",
    "schwierigkeit": "Easy"
  },
  {
    "name": "Tierfarm",
    "lat": 51.3646625,
    "lng": 9.5255781,
    "beschreibung": "Tierfarm is a unique lost place full of history and mystery. It attracts adventurers, photographers, and history enthusiasts.",
    "category": "Factory",
    "schwierigkeit": "Hard"
  },
  {
    "name": "Kapelle",
    "lat": 50.4247272,
    "lng": 8.3920829,
    "beschreibung": "Kapelle is a unique lost place full of history and mystery. It attracts adventurers, photographers, and history enthusiasts.",
    "category": "Orphanage",
    "schwierigkeit": "Medium"
  },
  {
    "name": "Krankenhaus",
    "lat": 51.1114493,
    "lng": 9.0784104,
    "beschreibung": "Krankenhaus is a unique lost place full of history and mystery. It attracts adventurers, photographers, and history enthusiasts.",
    "category": "Residential",
    "schwierigkeit": "Easy"
  },
  {
    "name": "Bio Campus",
    "lat": 50.1254924,
    "lng": 8.658389,
    "beschreibung": "Bio Campus is a unique lost place full of history and mystery. It attracts adventurers, photographers, and history enthusiasts.",
    "category": "Industry",
    "schwierigkeit": "Easy"
  },
  {
    "name": "Bahnbetriebswerk",
    "lat": 50.5706735,
    "lng": 8.6545072,
    "beschreibung": "Bahnbetriebswerk is a unique lost place full of history and mystery. It attracts adventurers, photographers, and history enthusiasts.",
    "category": "Residential",
    "schwierigkeit": "Hard"
  },
  {
    "name": "Gärtnerei",
    "lat": 50.2012375,
    "lng": 8.8164219,
    "beschreibung": "Gärtnerei is a unique lost place full of history and mystery. It attracts adventurers, photographers, and history enthusiasts.",
    "category": "Holiday Camp",
    "schwierigkeit": "Extreme"
  },
  {
    "name": "Haus",
    "lat": 49.9097995,
    "lng": 9.1552669,
    "beschreibung": "Haus is a unique lost place full of history and mystery. It attracts adventurers, photographers, and history enthusiasts.",
    "category": "Factory",
    "schwierigkeit": "Easy"
  },
  {
    "name": "Grube Waldhausen",
    "lat": 50.4984125,
    "lng": 8.2588594,
    "beschreibung": "Grube Waldhausen is a unique lost place full of history and mystery. It attracts adventurers, photographers, and history enthusiasts.",
    "category": "Barracks",
    "schwierigkeit": "Extreme"
  },
  {
    "name": "Kaserne",
    "lat": 51.3384375,
    "lng": 9.1255156,
    "beschreibung": "Kaserne is a unique lost place full of history and mystery. It attracts adventurers, photographers, and history enthusiasts.",
    "category": "Orphanage",
    "schwierigkeit": "Medium"
  },
  {
    "name": "Löwensprudel",
    "lat": 51.0468375,
    "lng": 9.1815469,
    "beschreibung": "Löwensprudel is a unique lost place full of history and mystery. It attracts adventurers, photographers, and history enthusiasts.",
    "category": "Factory",
    "schwierigkeit": "Hard"
  },
  {
    "name": "Safaripark",
    "lat": 50.7576125,
    "lng": 9.6026719,
    "beschreibung": "Safaripark is a unique lost place full of history and mystery. It attracts adventurers, photographers, and history enthusiasts.",
    "category": "Industry",
    "schwierigkeit": "Hard"
  },
  {
    "name": "Anna L",
    "lat": 51.1142462,
    "lng": 9.1097535,
    "beschreibung": "Anna L is a unique lost place full of history and mystery. It attracts adventurers, photographers, and history enthusiasts.",
    "category": "Barracks",
    "schwierigkeit": "Extreme"
  },
  {
    "name": "Skisprungschanze",
    "lat": 50.4666375,
    "lng": 9.3018906,
    "beschreibung": "Skisprungschanze is a unique lost place full of history and mystery. It attracts adventurers, photographers, and history enthusiasts.",
    "category": "Hospital",
    "schwierigkeit": "Medium"
  },
  {
    "name": "Haus des Sammlers",
    "lat": 50.9000375,
    "lng": 8.4452031,
    "beschreibung": "Haus des Sammlers is a unique lost place full of history and mystery. It attracts adventurers, photographers, and history enthusiasts.",
    "category": "Orphanage",
    "schwierigkeit": "Extreme"
  },
  {
    "name": "Marmorwerk",
    "lat": 50.247315,
    "lng": 9.6139914,
    "beschreibung": "Marmorwerk is a unique lost place full of history and mystery. It attracts adventurers, photographers, and history enthusiasts.",
    "category": "Barracks",
    "schwierigkeit": "Hard"
  },
  {
    "name": "Asklepios Klinik",
    "lat": 51.0369125,
    "lng": 9.4181094,
    "beschreibung": "Asklepios Klinik is a unique lost place full of history and mystery. It attracts adventurers, photographers, and history enthusiasts.",
    "category": "Hotel",
    "schwierigkeit": "Extreme"
  },
  {
    "name": "Fabrik",
    "lat": 51.2940771,
    "lng": 8.8582436,
    "beschreibung": "Fabrik is a unique lost place full of history and mystery. It attracts adventurers, photographers, and history enthusiasts.",
    "category": "Hotel",
    "schwierigkeit": "Hard"
  },
  {
    "name": "Bunker",
    "lat": 50.5833125,
    "lng": 8.6952031,
    "beschreibung": "Bunker is a unique lost place full of history and mystery. It attracts adventurers, photographers, and history enthusiasts.",
    "category": "Hotel",
    "schwierigkeit": "Extreme"
  },
  {
    "name": "Kindergarten",
    "lat": 53.4994689,
    "lng": 13.019831,
    "beschreibung": "Kindergarten is a unique lost place full of history and mystery. It attracts adventurers, photographers, and history enthusiasts.",
    "category": "School",
    "schwierigkeit": "Easy"
  },
  {
    "name": "LPG",
    "lat": 54.4348625,
    "lng": 13.2119531,
    "beschreibung": "LPG is a unique lost place full of history and mystery. It attracts adventurers, photographers, and history enthusiasts.",
    "category": "Industry",
    "schwierigkeit": "Easy"
  },
  {
    "name": "Feriendorf",
    "lat": 53.9820317,
    "lng": 14.1253258,
    "beschreibung": "Feriendorf is a unique lost place full of history and mystery. It attracts adventurers, photographers, and history enthusiasts.",
    "category": "Industry",
    "schwierigkeit": "Hard"
  },
  {
    "name": "Kaserne",
    "lat": 54.2567847,
    "lng": 12.4444289,
    "beschreibung": "Kaserne is a unique lost place full of history and mystery. It attracts adventurers, photographers, and history enthusiasts.",
    "category": "Residential",
    "schwierigkeit": "Extreme"
  },
  {
    "name": "Haus des Verfalls",
    "lat": 53.5989625,
    "lng": 11.4908594,
    "beschreibung": "Haus des Verfalls is a unique lost place full of history and mystery. It attracts adventurers, photographers, and history enthusiasts.",
    "category": "Bunker",
    "schwierigkeit": "Extreme"
  },
  {
    "name": "Bauernhaus",
    "lat": 53.5745125,
    "lng": 11.7280469,
    "beschreibung": "Bauernhaus is a unique lost place full of history and mystery. It attracts adventurers, photographers, and history enthusiasts.",
    "category": "Factory",
    "schwierigkeit": "Hard"
  },
  {
    "name": "Haus des Amerikanischen Autosammlers",
    "lat": 53.6007625,
    "lng": 11.0895781,
    "beschreibung": "Haus des Amerikanischen Autosammlers is a unique lost place full of history and mystery. It attracts adventurers, photographers, and history enthusiasts.",
    "category": "Residential",
    "schwierigkeit": "Extreme"
  },
  {
    "name": "Schiff",
    "lat": 53.9309625,
    "lng": 11.4732344,
    "beschreibung": "Schiff is a unique lost place full of history and mystery. It attracts adventurers, photographers, and history enthusiasts.",
    "category": "Hospital",
    "schwierigkeit": "Easy"
  },
  {
    "name": "Gießerei",
    "lat": 53.5111875,
    "lng": 13.9800156,
    "beschreibung": "Gießerei is a unique lost place full of history and mystery. It attracts adventurers, photographers, and history enthusiasts.",
    "category": "Orphanage",
    "schwierigkeit": "Extreme"
  },
  {
    "name": "Saal GSSD",
    "lat": 53.3378375,
    "lng": 12.7263906,
    "beschreibung": "Saal GSSD is a unique lost place full of history and mystery. It attracts adventurers, photographers, and history enthusiasts.",
    "category": "Industry",
    "schwierigkeit": "Medium"
  },
  {
    "name": "Hotel",
    "lat": 54.2876875,
    "lng": 13.3117969,
    "beschreibung": "Hotel is a unique lost place full of history and mystery. It attracts adventurers, photographers, and history enthusiasts.",
    "category": "Orphanage",
    "schwierigkeit": "Medium"
  },
  {
    "name": "Geflügelfarm",
    "lat": 54.4046625,
    "lng": 13.2906719,
    "beschreibung": "Geflügelfarm is a unique lost place full of history and mystery. It attracts adventurers, photographers, and history enthusiasts.",
    "category": "Barracks",
    "schwierigkeit": "Medium"
  },
  {
    "name": "Papierfabrik",
    "lat": 53.1704692,
    "lng": 11.2881066,
    "beschreibung": "Papierfabrik is a unique lost place full of history and mystery. It attracts adventurers, photographers, and history enthusiasts.",
    "category": "School",
    "schwierigkeit": "Hard"
  },
  {
    "name": "LPG",
    "lat": 54.4260375,
    "lng": 12.7409844,
    "beschreibung": "LPG is a unique lost place full of history and mystery. It attracts adventurers, photographers, and history enthusiasts.",
    "category": "Bunker",
    "schwierigkeit": "Extreme"
  },
  {
    "name": "Strahlenklinik",
    "lat": 53.6457625,
    "lng": 11.3796406,
    "beschreibung": "Strahlenklinik is a unique lost place full of history and mystery. It attracts adventurers, photographers, and history enthusiasts.",
    "category": "Barracks",
    "schwierigkeit": "Hard"
  },
  {
    "name": "Gutshaus",
    "lat": 53.8178375,
    "lng": 13.1902344,
    "beschreibung": "Gutshaus is a unique lost place full of history and mystery. It attracts adventurers, photographers, and history enthusiasts.",
    "category": "Orphanage",
    "schwierigkeit": "Medium"
  },
  {
    "name": "DDR Volksmarine",
    "lat": 54.3253375,
    "lng": 13.5895156,
    "beschreibung": "DDR Volksmarine is a unique lost place full of history and mystery. It attracts adventurers, photographers, and history enthusiasts.",
    "category": "Orphanage",
    "schwierigkeit": "Extreme"
  },
  {
    "name": "Heizkraftwerk",
    "lat": 53.5785875,
    "lng": 11.3923281,
    "beschreibung": "Heizkraftwerk is a unique lost place full of history and mystery. It attracts adventurers, photographers, and history enthusiasts.",
    "category": "Barracks",
    "schwierigkeit": "Extreme"
  },
  {
    "name": "Grafitti Fabrik",
    "lat": 51.2157875,
    "lng": 7.0715156,
    "beschreibung": "Grafitti Fabrik is a unique lost place full of history and mystery. It attracts adventurers, photographers, and history enthusiasts.",
    "category": "Barracks",
    "schwierigkeit": "Easy"
  },
  {
    "name": "Sex Kino",
    "lat": 51.5194375,
    "lng": 7.4641875,
    "beschreibung": "Sex Kino is a unique lost place full of history and mystery. It attracts adventurers, photographers, and history enthusiasts.",
    "category": "Hotel",
    "schwierigkeit": "Easy"
  },
  {
    "name": "Krankenhaus",
    "lat": 51.1545827,
    "lng": 6.9846944,
    "beschreibung": "Krankenhaus is a unique lost place full of history and mystery. It attracts adventurers, photographers, and history enthusiasts.",
    "category": "Residential",
    "schwierigkeit": "Medium"
  },
  {
    "name": "Bunker",
    "lat": 50.9331375,
    "lng": 7.1599844,
    "beschreibung": "Bunker is a unique lost place full of history and mystery. It attracts adventurers, photographers, and history enthusiasts.",
    "category": "Hospital",
    "schwierigkeit": "Easy"
  },
  {
    "name": "Haus",
    "lat": 51.6656875,
    "lng": 7.7305781,
    "beschreibung": "Haus is a unique lost place full of history and mystery. It attracts adventurers, photographers, and history enthusiasts.",
    "category": "Residential",
    "schwierigkeit": "Easy"
  },
  {
    "name": "Kartonfabrik",
    "lat": 51.7105875,
    "lng": 9.2985469,
    "beschreibung": "Kartonfabrik is a unique lost place full of history and mystery. It attracts adventurers, photographers, and history enthusiasts.",
    "category": "Holiday Camp",
    "schwierigkeit": "Medium"
  },
  {
    "name": "Studienhaus",
    "lat": 51.0566375,
    "lng": 8.2342969,
    "beschreibung": "Studienhaus is a unique lost place full of history and mystery. It attracts adventurers, photographers, and history enthusiasts.",
    "category": "Holiday Camp",
    "schwierigkeit": "Medium"
  },
  {
    "name": "Schule",
    "lat": 51.5467125,
    "lng": 7.1357031,
    "beschreibung": "Schule is a unique lost place full of history and mystery. It attracts adventurers, photographers, and history enthusiasts.",
    "category": "School",
    "schwierigkeit": "Hard"
  },
  {
    "name": "Sporthalle",
    "lat": 51.1227448,
    "lng": 6.2111724,
    "beschreibung": "Sporthalle is a unique lost place full of history and mystery. It attracts adventurers, photographers, and history enthusiasts.",
    "category": "School",
    "schwierigkeit": "Easy"
  },
  {
    "name": "Minengelände mit Bergwerksstollen",
    "lat": 51.2918875,
    "lng": 7.0667969,
    "beschreibung": "Minengelände mit Bergwerksstollen is a unique lost place full of history and mystery. It attracts adventurers, photographers, and history enthusiasts.",
    "category": "Bunker",
    "schwierigkeit": "Extreme"
  },
  {
    "name": "Haus",
    "lat": 51.8418125,
    "lng": 6.2319531,
    "beschreibung": "Haus is a unique lost place full of history and mystery. It attracts adventurers, photographers, and history enthusiasts.",
    "category": "Hospital",
    "schwierigkeit": "Extreme"
  },
  {
    "name": "Saunaclub",
    "lat": 51.7434875,
    "lng": 6.5886094,
    "beschreibung": "Saunaclub is a unique lost place full of history and mystery. It attracts adventurers, photographers, and history enthusiasts.",
    "category": "School",
    "schwierigkeit": "Extreme"
  },
  {
    "name": "Schacht Sandbochum",
    "lat": 51.6416125,
    "lng": 7.6981719,
    "beschreibung": "Schacht Sandbochum is a unique lost place full of history and mystery. It attracts adventurers, photographers, and history enthusiasts.",
    "category": "Hospital",
    "schwierigkeit": "Medium"
  },
  {
    "name": "Druckerei",
    "lat": 51.835724,
    "lng": 6.2503179,
    "beschreibung": "Druckerei is a unique lost place full of history and mystery. It attracts adventurers, photographers, and history enthusiasts.",
    "category": "Hospital",
    "schwierigkeit": "Easy"
  },
  {
    "name": "Bauernhaus",
    "lat": 51.4595875,
    "lng": 6.3470156,
    "beschreibung": "Bauernhaus is a unique lost place full of history and mystery. It attracts adventurers, photographers, and history enthusiasts.",
    "category": "Factory",
    "schwierigkeit": "Easy"
  },
  {
    "name": "Bunker Danzig",
    "lat": 51.5181875,
    "lng": 7.4697969,
    "beschreibung": "Bunker Danzig is a unique lost place full of history and mystery. It attracts adventurers, photographers, and history enthusiasts.",
    "category": "Hotel",
    "schwierigkeit": "Easy"
  },
  {
    "name": "Haus",
    "lat": 51.5825058,
    "lng": 6.2391872,
    "beschreibung": "Haus is a unique lost place full of history and mystery. It attracts adventurers, photographers, and history enthusiasts.",
    "category": "Industry",
    "schwierigkeit": "Extreme"
  },
  {
    "name": "Werkstatt mit Tankstelle",
    "lat": 51.7638625,
    "lng": 7.9203906,
    "beschreibung": "Werkstatt mit Tankstelle is a unique lost place full of history and mystery. It attracts adventurers, photographers, and history enthusiasts.",
    "category": "Industry",
    "schwierigkeit": "Easy"
  },
  {
    "name": "Villa des Skihändlers",
    "lat": 51.3668875,
    "lng": 8.3303594,
    "beschreibung": "Villa des Skihändlers is a unique lost place full of history and mystery. It attracts adventurers, photographers, and history enthusiasts.",
    "category": "Orphanage",
    "schwierigkeit": "Hard"
  },
  {
    "name": "Bauernhof",
    "lat": 51.2536375,
    "lng": 6.3139219,
    "beschreibung": "Bauernhof is a unique lost place full of history and mystery. It attracts adventurers, photographers, and history enthusiasts.",
    "category": "Factory",
    "schwierigkeit": "Extreme"
  },
  {
    "name": "Flugzeugrestaurant",
    "lat": 51.3044625,
    "lng": 7.2799844,
    "beschreibung": "Flugzeugrestaurant is a unique lost place full of history and mystery. It attracts adventurers, photographers, and history enthusiasts.",
    "category": "School",
    "schwierigkeit": "Medium"
  },
  {
    "name": "Haus des Sheriff's",
    "lat": 50.8941125,
    "lng": 7.4234219,
    "beschreibung": "Haus des Sheriff's is a unique lost place full of history and mystery. It attracts adventurers, photographers, and history enthusiasts.",
    "category": "Residential",
    "schwierigkeit": "Hard"
  },